,name,neighbourhood_cleansed,latitude,longitude,listing_url,number_of_reviews_ltm,review_scores_rating
0,D1 -  Million Dollar View 2 BR,Downtown,49.28872,-123.12046,https://www.airbnb.com/rooms/10080,0,4.64
1,Garden level studio in ideal loc.,Riley Park,49.24773,-123.10509,https://www.airbnb.com/rooms/13188,3,4.83
2,Monthly (or Longer ) Designer One Bedroom Downtown,West End,49.28201,-123.12669,https://www.airbnb.com/rooms/13358,1,4.67
3,Vancouver's best kept secret,Kensington-Cedar Cottage,49.25622,-123.06607,https://www.airbnb.com/rooms/13490,3,4.92
4,EcoLoft Vancouver,Kensington-Cedar Cottage,49.24922,-123.08139,https://www.airbnb.com/rooms/14267,1,4.76
5,Close to PNE/Hastings Park Garden level suite,Hastings-Sunrise,49.27721,-123.04086,https://www.airbnb.com/rooms/16254,0,4.8
6,"1 block to skytrain station, shops,restaurant,bank",Grandview-Woodland,49.26339,-123.07145,https://www.airbnb.com/rooms/16611,0,4.0
7,"Central location, nice little apartment",Mount Pleasant,49.26132,-123.10845,https://www.airbnb.com/rooms/17765,9,4.6
8,private rm in clean central 2BR apt,Mount Pleasant,49.26557,-123.096,https://www.airbnb.com/rooms/18270,0,4.54
9,Commercial Drive B&B,Grandview-Woodland,49.27569,-123.07057,https://www.airbnb.com/rooms/18589,5,4.98
10,"Comfort Suite on Kits Beach + Netflix, and Youtube",Kitsilano,49.2733,-123.16457,https://www.airbnb.com/rooms/18773,2,4.07
11,*Best choice in downtown-5 Stars * -2,West End,49.28299,-123.13008,https://www.airbnb.com/rooms/18795,1,4.55
12,Vancouver Downtown Studio Apartment,Downtown,49.2766,-123.12935,https://www.airbnb.com/rooms/19001,1,4.67
13,Spacious Apartment near Granville Island and VGH,Fairview,49.26018,-123.13477,https://www.airbnb.com/rooms/19527,9,4.69
14,Beautiful 2 Br 2 Bath + Den Yaletown Seawall,Downtown,49.27323,-123.12032,https://www.airbnb.com/rooms/19621,0,
15,Bright & Cheerful Uptown Garden Suite,Kensington-Cedar Cottage,49.25636,-123.08636,https://www.airbnb.com/rooms/20085,2,4.82
16,PRIVATE ROOM + BATH + KING BED + SEPARATE ENTRY,Renfrew-Collingwood,49.23361,-123.05283,https://www.airbnb.com/rooms/21912,13,4.68
17,PRIVATE  SUITE (KITCHEN+ BEDROOM+BATH+LIVING ROOM),Renfrew-Collingwood,49.23442,-123.05307,https://www.airbnb.com/rooms/21913,5,4.74
18,Walker's paradise in Kitsilano,Kitsilano,49.26216,-123.1715,https://www.airbnb.com/rooms/24273,1,5.0
19,The Alpha Downtown Accommodation by COMFYSUITES,Downtown,49.28086,-123.12375,https://www.airbnb.com/rooms/26047,1,4.74
20,Designer Urban Park View Townhouse,Downtown,49.2792,-123.105,https://www.airbnb.com/rooms/32746,3,4.33
21,“Suite on Main”  near  Q.E Park,Riley Park,49.24677,-123.1048,https://www.airbnb.com/rooms/33150,19,4.97
22,"Private Quiet Studio in the HEART of ""The Drive""",Grandview-Woodland,49.2729,-123.06973,https://www.airbnb.com/rooms/35304,29,4.71
23,The Charlie by COMFYSUITES,Downtown,49.28036,-123.1234,https://www.airbnb.com/rooms/42645,3,4.77
24,Executive Furnished Apartment (2 months minimum),Renfrew-Collingwood,49.23653,-123.02664,https://www.airbnb.com/rooms/48146,0,
25,Boutique Studio Apartment in Kits!,Kitsilano,49.26778,-123.14674,https://www.airbnb.com/rooms/49736,0,4.89
26,Yaletown 1 Bedroom Condo,Downtown,49.27462,-123.12426,https://www.airbnb.com/rooms/54261,0,4.85
27,"Open-concept, Modern Heritage Home with over 20 Skylights",Downtown Eastside,49.27836,-123.08716,https://www.airbnb.com/rooms/70453,2,4.92
28,Central Convenient Vibrant Neighbourhood!,Grandview-Woodland,49.27345,-123.07031,https://www.airbnb.com/rooms/72659,0,4.91
29,Amazing Downtown Vancouver Condo!,Downtown,49.27591,-123.12359,https://www.airbnb.com/rooms/73841,3,4.73
30,Room with a Garden View!,Arbutus Ridge,49.2452,-123.16544,https://www.airbnb.com/rooms/77157,25,4.82
31,Your Downtown Executive Suite,Downtown,49.27936,-123.12443,https://www.airbnb.com/rooms/98830,0,4.88
32,"Clean and Comfy, 2 Bd, Walk to the Drive",Grandview-Woodland,49.26758,-123.06016,https://www.airbnb.com/rooms/111077,11,4.7
33,Main Street Vineyard,Riley Park,49.24615,-123.09462,https://www.airbnb.com/rooms/125176,27,4.7
34,"Rock Rose - Clean, Cozy, Comfy, Steps2-Skytrain.",Renfrew-Collingwood,49.24401,-123.04772,https://www.airbnb.com/rooms/129163,1,4.51
35,"West view, Transit convenient, clean & comfortable",Renfrew-Collingwood,49.24356,-123.04757,https://www.airbnb.com/rooms/134688,1,4.56
36,"1905 Heritage Loft, Main/Broadway, Olympic Village",Mount Pleasant,49.26382,-123.10484,https://www.airbnb.com/rooms/140698,12,4.82
37,Family friendly Point Grey Home,Dunbar Southlands,49.25757,-123.18966,https://www.airbnb.com/rooms/170137,17,4.85
38,Charming and Homely Downtown Penthouse,Downtown,49.28034,-123.12648,https://www.airbnb.com/rooms/172827,0,4.86
39,VANCOUVER'S BEST PRIVATE SUITE/LOFT,Downtown Eastside,49.27857,-123.0899,https://www.airbnb.com/rooms/174135,0,4.8
40,KITS SUPER CENTRAL DELIGHTFULL APT!,Kitsilano,49.25808,-123.16824,https://www.airbnb.com/rooms/182451,1,4.88
41,A Real Gem in the Heart of Kits,Kitsilano,49.2719,-123.15043,https://www.airbnb.com/rooms/219261,11,4.59
42,West End Retreat - Private Room/Bath,West End,49.28993,-123.13879,https://www.airbnb.com/rooms/236297,4,4.91
43,"Stunning views, comfort, location!!",Grandview-Woodland,49.29103,-123.05782,https://www.airbnb.com/rooms/248014,0,5.0
44,Heritage Loft in heart of Gastown,Downtown Eastside,49.28375,-123.10383,https://www.airbnb.com/rooms/254657,6,4.9
45,Luxury Coach House in Kitsilano,Kitsilano,49.26293,-123.17143,https://www.airbnb.com/rooms/256178,9,5.0
46,FABULOUS Luxury Downtown Vancouver!,Downtown,49.27839,-123.12852,https://www.airbnb.com/rooms/258636,1,4.79
47,D27 - 3 Bedroom in Coal Harbour,Downtown,49.28906,-123.12505,https://www.airbnb.com/rooms/283841,0,5.0
48,Sunset views - LGBTQ2+ friendly,Renfrew-Collingwood,49.23273,-123.02747,https://www.airbnb.com/rooms/306178,0,4.97
49,Close to downtown/shops/restaurants/skytrain,Grandview-Woodland,49.26328,-123.07086,https://www.airbnb.com/rooms/311354,0,4.0
50,Modern Yaletown 1BR | GREAT VIEW + CENTRAL,Downtown,49.27608,-123.12452,https://www.airbnb.com/rooms/322824,2,4.89
51,Beautiful fully furnished suite,Downtown,49.28244,-123.12293,https://www.airbnb.com/rooms/323090,0,4.76
52,Stylish Modern Central Downtown★★★★★★★,Downtown,49.27634,-123.11825,https://www.airbnb.com/rooms/359942,0,4.85
53,Bright Spacious Bedroom Pvt Bath,Grandview-Woodland,49.27799,-123.07101,https://www.airbnb.com/rooms/377706,0,4.68
54,"LARGE PRIVATE ROOM+ BATH, SEPARATE ENTRY, KING BED",Renfrew-Collingwood,49.2332,-123.0551,https://www.airbnb.com/rooms/415700,9,4.7
55,Trendy & Spacious 2 bd Gastown Loft,Downtown Eastside,49.28211,-123.10453,https://www.airbnb.com/rooms/436032,18,4.84
56,UNIQUE 4 Bedroom Character House near Downtown!,Mount Pleasant,49.26743,-123.11178,https://www.airbnb.com/rooms/444187,0,4.83
57,Home (Office) Away from Home – Heart of Downtown,Downtown,49.28063,-123.12502,https://www.airbnb.com/rooms/448104,6,4.88
58,Lovely large room w/ private bath,Killarney,49.22834,-123.03047,https://www.airbnb.com/rooms/461370,0,4.66
59,Beautiful room (s) Vancouver Home,Killarney,49.23034,-123.02971,https://www.airbnb.com/rooms/461386,0,4.37
60,Entire 1400sf white loft with large deck + rooftop,Downtown Eastside,49.28241,-123.10381,https://www.airbnb.com/rooms/475296,25,4.84
61,Vancouver One Bedroom,Downtown,49.28052,-123.12691,https://www.airbnb.com/rooms/485225,0,4.0
62,"Downtown 1Bed+Den, stylish & modern",Downtown,49.28062,-123.11815,https://www.airbnb.com/rooms/496298,2,4.92
63,Central Modern House with View and 2 Kitchens,Kensington-Cedar Cottage,49.25099,-123.07457,https://www.airbnb.com/rooms/498112,2,4.66
64,Level | One Bedroom Suite | Downtown Vancouver,Downtown,49.27741,-123.12292,https://www.airbnb.com/rooms/507767,0,5.0
65,Modern Architectural lakeside Home On The Park,Kensington-Cedar Cottage,49.25759,-123.06393,https://www.airbnb.com/rooms/540348,7,4.86
66,Commercial Dr West Coast Garden Ste,Grandview-Woodland,49.27917,-123.06246,https://www.airbnb.com/rooms/557357,4,4.89
67,5 min walk to St Paul’s hospital & Davie St.,Downtown,49.27713,-123.13155,https://www.airbnb.com/rooms/569160,3,4.85
68,Sub-Penthouse with Amazing Views in Heart of City,Downtown,49.27999,-123.1075,https://www.airbnb.com/rooms/622217,6,4.95
69,Quiet Oasis Garden Suite - Steps from the Drive,Grandview-Woodland,49.26775,-123.06862,https://www.airbnb.com/rooms/648026,1,4.86
70,English Bay Hideaway @ Stanley Park,West End,49.29178,-123.14175,https://www.airbnb.com/rooms/654744,4,4.77
71,1 Bedroom Private Furnished Suite,Kensington-Cedar Cottage,49.2506,-123.07175,https://www.airbnb.com/rooms/654763,0,4.7
72,Nice room in amazing luxury home near DOWNTOWN+UBC,South Cambie,49.24413,-123.11955,https://www.airbnb.com/rooms/659986,0,4.33
73,Entire cute  condo full of art,Downtown,49.27945,-123.10875,https://www.airbnb.com/rooms/703179,13,4.79
74,Luxury Seaview Studio Suite - Westend,West End,49.28104,-123.13621,https://www.airbnb.com/rooms/713271,6,4.76
75,Kitsilano Laneway House - Quiet Neighbourhood,Kitsilano,49.26026,-123.18195,https://www.airbnb.com/rooms/731219,0,4.91
76,English Bay Views,West End,49.28059,-123.1364,https://www.airbnb.com/rooms/735468,19,4.67
77,Kitsilano 2 bdrm Garden Level Suite,Kitsilano,49.25996,-123.16653,https://www.airbnb.com/rooms/755558,2,4.86
78,Very Convenient Mini-suite,Renfrew-Collingwood,49.24438,-123.04453,https://www.airbnb.com/rooms/763445,4,4.75
79,Level | Studio | Lux Amenities Downtown Vancouver,Downtown,49.2794,-123.12181,https://www.airbnb.com/rooms/771366,0,5.0
80,Level | Two Bedroom Suite | Lux Amenities Downtown,Downtown,49.27918,-123.12187,https://www.airbnb.com/rooms/771380,0,4.57
81,The Garden Quarter in Kitsilano,Kitsilano,49.26186,-123.17438,https://www.airbnb.com/rooms/784153,6,4.78
82,The Nook in Kitsilano,Kitsilano,49.26355,-123.17326,https://www.airbnb.com/rooms/785297,8,4.91
83,The Garden Nook in Kitsilano,Kitsilano,49.26213,-123.17482,https://www.airbnb.com/rooms/785752,0,5.0
84,Exellent for International Student,West End,49.28087,-123.13525,https://www.airbnb.com/rooms/796603,0,
85,fully furnished suite near VGH,Fairview,49.25804,-123.12119,https://www.airbnb.com/rooms/801222,2,4.59
86,East Village Private Garden Gem!,Hastings-Sunrise,49.28618,-123.05403,https://www.airbnb.com/rooms/824612,2,4.57
87,1 bedroom+Den Monthly rentals only,Downtown,49.27317,-123.11961,https://www.airbnb.com/rooms/828920,2,4.75
88,Sunny room with private bathroom and large patio,Fairview,49.25785,-123.12199,https://www.airbnb.com/rooms/874731,4,4.53
89,Heritage Home near Kits Beach,Kitsilano,49.27073,-123.16325,https://www.airbnb.com/rooms/875309,1,4.72
90,"Dunbar near UBC: Clean, comfortable + quiet",Dunbar Southlands,49.24803,-123.18517,https://www.airbnb.com/rooms/885600,7,4.92
91,The Nicola House in English bay,West End,49.28649,-123.13458,https://www.airbnb.com/rooms/939882,19,4.63
92,Private apartment-Yaletown Downtown,Downtown,49.27744,-123.11524,https://www.airbnb.com/rooms/958090,0,4.2
93,Oakridge Canada Line completely renovated home,Riley Park,49.23569,-123.10987,https://www.airbnb.com/rooms/961006,0,4.33
94,Spacious Room in Character Home,Kitsilano,49.26648,-123.15939,https://www.airbnb.com/rooms/961831,15,5.0
95,"261 Yaletown Studio at ""Space""",Downtown,49.27489,-123.12654,https://www.airbnb.com/rooms/980511,0,4.71
96,152 Studio (no Bedroom),Downtown,49.28006,-123.12673,https://www.airbnb.com/rooms/994969,0,5.0
97,159 2 BEDROOM/ 2 FULL BATH-ideal for sharing!,West End,49.28837,-123.12766,https://www.airbnb.com/rooms/995174,0,4.58
98,S2-LUXURIOUS 2-BR/2-Baths/2-Balcony,Downtown,49.27804,-123.12531,https://www.airbnb.com/rooms/1007137,0,4.0
99,S1-VIBRANT DOWNTOWN 1-BR + den!,Downtown,49.27828,-123.12671,https://www.airbnb.com/rooms/1007144,0,5.0
100,comfy stay in clean victorian house,Mount Pleasant,49.25674,-123.0874,https://www.airbnb.com/rooms/1012385,21,4.8
101,Deluxe Junior One Bedroom (2 Beds),Downtown,49.27747,-123.12098,https://www.airbnb.com/rooms/1021607,6,4.85
102,Yaletown Deluxe Studio Condominium,Downtown,49.27703,-123.12692,https://www.airbnb.com/rooms/1021669,3,4.75
103,Artist's Character home in 'hip' Commercial Drive,Grandview-Woodland,49.27241,-123.06332,https://www.airbnb.com/rooms/1032892,11,4.79
104,FURNISHED 1 BED + DEN IN YALETOWN,Downtown,49.27613,-123.12389,https://www.airbnb.com/rooms/1090662,0,
105,Modern Downtown-2BR+2Bath+Den+Office+Pkg-Monthly,Downtown,49.28028,-123.10737,https://www.airbnb.com/rooms/1103566,10,4.67
106,136 Lord Stanley Great price!,West End,49.29258,-123.13446,https://www.airbnb.com/rooms/1109821,0,4.45
107,Family-Friendly Kitsilano House with Mountain Views,Kitsilano,49.26008,-123.15989,https://www.airbnb.com/rooms/1113551,2,4.86
108,*Best choice in downtown-5 Stars * -3,West End,49.28239,-123.13021,https://www.airbnb.com/rooms/1118858,0,4.53
109,Yaletown/Downtown  1 Bedroom Condo,Downtown,49.28119,-123.12033,https://www.airbnb.com/rooms/1126273,0,0.0
110,2 Bdrm in Strathcona,Downtown Eastside,49.27925,-123.08814,https://www.airbnb.com/rooms/1141457,6,4.77
111,Bright & Tidy Character Apartment,Grandview-Woodland,49.2726,-123.06988,https://www.airbnb.com/rooms/1162198,1,4.69
112,Cozy space in East Vancouver,Hastings-Sunrise,49.26957,-123.04828,https://www.airbnb.com/rooms/1178149,7,4.93
113,Luxury Spacious Condo by Kits Beach,Kitsilano,49.27271,-123.14924,https://www.airbnb.com/rooms/1206606,0,4.7
114,Cool cozy suite on The Drive,Grandview-Woodland,49.26731,-123.06909,https://www.airbnb.com/rooms/1214617,1,4.86
115,Stunning Suite Heart of DT w/Parking and Office,Downtown,49.27843,-123.12901,https://www.airbnb.com/rooms/1223989,1,4.85
116,Private Hotel-Style Suite in a Downtown Boutique High-Rise,Downtown,49.28478,-123.1192,https://www.airbnb.com/rooms/1273760,36,4.85
117,Clean New Kits 3 bedroom/ 2bath!,Kitsilano,49.26889,-123.18543,https://www.airbnb.com/rooms/1291394,0,4.89
118,120 501 Pacific,Downtown,49.28279,-123.1222,https://www.airbnb.com/rooms/1316419,0,4.5
119,224 Yaletown Park.  Long term stay welcome,Downtown,49.27859,-123.11993,https://www.airbnb.com/rooms/1316477,0,4.86
120,Cosy 1 bedroom apt Mount Pleasant,Mount Pleasant,49.25909,-123.10415,https://www.airbnb.com/rooms/1324743,1,4.46
121,Close to Anywhere: Location Location Location,Downtown Eastside,49.27627,-123.10013,https://www.airbnb.com/rooms/1343411,3,4.7
122,*Best choice in downtown-5 Stars* -1,West End,49.28247,-123.13068,https://www.airbnb.com/rooms/1343519,1,4.45
123,Ultra Modern Apartment in Yaletow,Downtown,49.284,-123.11432,https://www.airbnb.com/rooms/1360765,1,4.75
124,Private space in heritage home in lovely area,Kensington-Cedar Cottage,49.25808,-123.07538,https://www.airbnb.com/rooms/1361276,3,4.69
125,AMAZING LOCATION 1BD CHARMING APT IN DOWNTOWN,West End,49.27932,-123.12911,https://www.airbnb.com/rooms/1365609,12,4.88
126,QUIET COZY SUNNY BR (ENSUITE) + ADJ STUDY IN HOUSE,West Point Grey,49.26026,-123.20135,https://www.airbnb.com/rooms/1378220,7,4.76
127,Stunning 1 Bedroom Laneway,Arbutus Ridge,49.23968,-123.16762,https://www.airbnb.com/rooms/1398788,3,4.91
128,Luxury 2 BDR With Wrap Around Deck,Mount Pleasant,49.26964,-123.11064,https://www.airbnb.com/rooms/1399744,2,4.9
129,Renovated Character Home - 3 Bdrm,Grandview-Woodland,49.26732,-123.06827,https://www.airbnb.com/rooms/1417881,1,4.86
130,One Bedroom & Secured Underground Parking,Downtown Eastside,49.28164,-123.11006,https://www.airbnb.com/rooms/1466647,0,4.23
131,244 -2 BEDROOM. WATER VIEW! 6 MONTH EXTENDED STAY,Downtown,49.29014,-123.12716,https://www.airbnb.com/rooms/1502887,0,4.8
132,Modern new room with private entry!,Riley Park,49.24882,-123.09121,https://www.airbnb.com/rooms/1507975,23,4.72
133,"114 Studio ""West of Denman""",West End,49.29101,-123.14085,https://www.airbnb.com/rooms/1525113,2,4.3
134,Private top floor on vibrant Main St,Riley Park,49.25259,-123.09292,https://www.airbnb.com/rooms/1623556,30,4.67
135,Garden Suite-Quiet/Private&Central,Riley Park,49.25225,-123.10756,https://www.airbnb.com/rooms/1629480,3,4.81
136,"Amazing 2000sqft Downtown loft, 3 patios + Parking",Downtown Eastside,49.28167,-123.10984,https://www.airbnb.com/rooms/1657214,1,5.0
137,"Bright, Modern Space on Beautiful Park",Kensington-Cedar Cottage,49.253,-123.0657,https://www.airbnb.com/rooms/1678734,0,4.87
138,Beautiful Kitsilano Apartment..,Kitsilano,49.26548,-123.14579,https://www.airbnb.com/rooms/1703616,0,
139,2 Bedroom Garden Flat - Main Street,Riley Park,49.24778,-123.09867,https://www.airbnb.com/rooms/1717967,17,4.91
140,DT Ocean view with luxury amenities and parking,Downtown,49.27781,-123.10637,https://www.airbnb.com/rooms/1733307,5,4.8
141,Master bedroom + private bathroom + secure parking,Kensington-Cedar Cottage,49.25349,-123.07603,https://www.airbnb.com/rooms/1736349,0,4.91
142,SoMa Suite - Main Street Cool,Riley Park,49.24489,-123.10302,https://www.airbnb.com/rooms/1768817,0,4.86
143,Film Industry loves this house! 5 min to VGH,Mount Pleasant,49.2585,-123.11479,https://www.airbnb.com/rooms/1820919,3,4.92
144,Cozy Retreat - Strathcona,Downtown Eastside,49.27866,-123.08627,https://www.airbnb.com/rooms/1830733,6,4.9
145,Main Street loft w/ rooftop patio and view!,Strathcona,49.26772,-123.0975,https://www.airbnb.com/rooms/1850984,2,4.81
146,156 One Bedroom in Downtown at The Electra,Downtown,49.28216,-123.12438,https://www.airbnb.com/rooms/1869071,0,4.67
147,Tinseltown Apartment,Downtown,49.27915,-123.10642,https://www.airbnb.com/rooms/1898584,3,4.73
148,Commercial Drive Garden Suite,Grandview-Woodland,49.26861,-123.06666,https://www.airbnb.com/rooms/1932171,0,4.64
149,Luxury affordable monthly stay in 1 BR,Shaughnessy,49.25646,-123.14563,https://www.airbnb.com/rooms/1936740,0,0.0
150,Stylish and Modern 2Bed West End Suite!,West End,49.28954,-123.13711,https://www.airbnb.com/rooms/1950844,24,4.78
151,Yaletown 1 Br Condo Monthly Only,Downtown,49.27336,-123.12771,https://www.airbnb.com/rooms/1961440,0,5.0
152,Family friendly & centrally located,Kerrisdale,49.22651,-123.14179,https://www.airbnb.com/rooms/1970354,5,4.74
153,"Charming ""Kitsilano Family Place""",Kitsilano,49.263252,-123.164825,https://www.airbnb.com/rooms/1995592,26,4.59
154,GREAT SUITE w GARDEN PATIO!  CENTRALLY LOCATED!!,Fairview,49.26263,-123.11627,https://www.airbnb.com/rooms/2003897,0,5.0
155,Amazing View from a Modern Loft,Strathcona,49.28519,-123.09872,https://www.airbnb.com/rooms/2008047,0,4.83
156,Sunny family-friendly house in Kits,Kitsilano,49.26057,-123.15881,https://www.airbnb.com/rooms/2011559,5,4.91
157,Experience Vancouver on the Drive!,Grandview-Woodland,49.26411,-123.06803,https://www.airbnb.com/rooms/2017305,0,4.64
158,Beautiful Kitsilano - Covid-19 Safe,Kitsilano,49.26715,-123.15325,https://www.airbnb.com/rooms/2033952,0,4.67
159,"Kitsilano Point, VERY CLEAN, welcoming and bright",Kitsilano,49.2753,-123.14721,https://www.airbnb.com/rooms/2041582,1,4.96
160,Yaletown 1BD Condo @ Homer & Robson,Downtown,49.28005,-123.11659,https://www.airbnb.com/rooms/2042431,5,4.9
161,2 bdrm in COMPLETLY RENOVATED HOME BY CANADA LINE,Riley Park,49.23573,-123.10819,https://www.airbnb.com/rooms/2046259,0,4.43
162,Cozy Modern apartment in Yaletown,Downtown,49.27393,-123.11599,https://www.airbnb.com/rooms/2056676,0,4.49
163,Gorgeous New House Double Ensuite,Renfrew-Collingwood,49.24976,-123.03547,https://www.airbnb.com/rooms/2084273,3,4.84
164,A spacious modern apartment,Mount Pleasant,49.2655,-123.0969,https://www.airbnb.com/rooms/2092610,5,4.71
165,Gorgeous New House Single Ensuite,Renfrew-Collingwood,49.24958,-123.0359,https://www.airbnb.com/rooms/2106364,1,4.81
166,good sized bedroom on second floor,Kitsilano,49.26933,-123.16177,https://www.airbnb.com/rooms/2108899,1,4.88
167,small room with single bed by beach,Kitsilano,49.26791,-123.16117,https://www.airbnb.com/rooms/2109035,0,5.0
168,South Granville 2 bedroom townhome,Fairview,49.25972,-123.14269,https://www.airbnb.com/rooms/2168943,0,4.93
169,Kitsilano PENTHOUSE,Kitsilano,49.26597,-123.15633,https://www.airbnb.com/rooms/2183209,11,4.74
170,5 star Luxury ShangriLa hotel condo,West End,49.28514,-123.12275,https://www.airbnb.com/rooms/2188113,0,4.86
171,Gorgeous home in Yaletown,Downtown,49.2773,-123.12294,https://www.airbnb.com/rooms/2198419,0,4.94
172,Central 1 bedrm Condo Downtown Van (min 30 days),Downtown,49.2804,-123.10726,https://www.airbnb.com/rooms/2209556,0,4.61
173,Bright Kitsilano Garden Apartment,West Point Grey,49.26992,-123.18596,https://www.airbnb.com/rooms/2216062,4,4.96
174,Charming Apartment just off Commercial Drive,Grandview-Woodland,49.27228,-123.06946,https://www.airbnb.com/rooms/2273714,3,4.8
175,The Perfect Place For Your Next Family Vacation,Dunbar Southlands,49.23792,-123.18224,https://www.airbnb.com/rooms/2282114,0,5.0
176,Yaletown Fully Furnished 17th Floor Condo,Downtown,49.27955,-123.12392,https://www.airbnb.com/rooms/2299515,1,4.36
177,Cozy garden sweet,Dunbar Southlands,49.24285,-123.18636,https://www.airbnb.com/rooms/2326272,0,4.0
178,Cozy Vancouver Suite near a park and transit,Kensington-Cedar Cottage,49.239,-123.08606,https://www.airbnb.com/rooms/2361393,1,4.67
179,Gem Modern Apartment in Yaletown,West End,49.28298,-123.12339,https://www.airbnb.com/rooms/2365994,0,4.84
180,Big Orange House,Mount Pleasant,49.25701,-123.09179,https://www.airbnb.com/rooms/2446828,30,4.89
181,Vancouver Quality Coach House,Kensington-Cedar Cottage,49.23748,-123.08735,https://www.airbnb.com/rooms/2454353,0,4.97
182,Monthly- Marinaside Ocean View Apartment -Yaletown,Downtown,49.27449,-123.11679,https://www.airbnb.com/rooms/2468591,0,4.67
183,New Edwardian home,Mount Pleasant,49.25877,-123.08299,https://www.airbnb.com/rooms/2502137,0,4.93
184,"Bright 1 bed suite, great location",Fairview,49.25865,-123.12294,https://www.airbnb.com/rooms/2576878,2,4.8
185,Ann's Place,South Cambie,49.25222,-123.1186,https://www.airbnb.com/rooms/2592307,32,4.91
186,Yvette's place,Hastings-Sunrise,49.2883,-123.04216,https://www.airbnb.com/rooms/2632171,14,4.59
187,Heritage Splendor Commercial Drive,Grandview-Woodland,49.27261,-123.0703,https://www.airbnb.com/rooms/2637519,0,4.79
188,Modern 2 Level Loft in East Van,Grandview-Woodland,49.28545,-123.06435,https://www.airbnb.com/rooms/2644110,0,4.86
189,LOCATION!!! RENOVATED!!! SLEEPS 2-4!!,Downtown,49.28044,-123.12496,https://www.airbnb.com/rooms/2653578,71,4.8
190,"266  -2 bedroom /sleeps 4 ""The Electra"" Downtown",West End,49.28169,-123.12628,https://www.airbnb.com/rooms/2658803,2,4.5
191,Laneway Home with a view,West Point Grey,49.27109,-123.2088,https://www.airbnb.com/rooms/2669445,0,4.7
192,Stroll to Granville Island from a Modern Kitsilano House,Kitsilano,49.27512,-123.15131,https://www.airbnb.com/rooms/2675179,3,4.95
193,"1 bedroom modern furnishing, cozy, & the view!",Kitsilano,49.26872,-123.15201,https://www.airbnb.com/rooms/2728122,17,4.85
194,Explore Vancouver in a Beautiful Trendy Townhouse,Mount Pleasant,49.26536,-123.09943,https://www.airbnb.com/rooms/2730555,24,4.95
195,Your Alternative to a 5 Star Hotel.,Downtown,49.27992,-123.12658,https://www.airbnb.com/rooms/2764812,11,4.88
196,Vancouver 2 bd trendy Main street,Mount Pleasant,49.25665,-123.10039,https://www.airbnb.com/rooms/2812038,14,4.93
197,Stunning Vancouver 1 bed Victorian Heritage Home,Grandview-Woodland,49.27465,-123.0669,https://www.airbnb.com/rooms/2831971,0,
198,"Water Views Downtown, Vancouver, BC",Downtown,49.27293,-123.12547,https://www.airbnb.com/rooms/2836478,0,5.0
199,Unique Loft in the Heart of Gastown,Downtown Eastside,49.28247,-123.10342,https://www.airbnb.com/rooms/2847310,31,4.94
200,Breathtaking Mountain & Water Views,Downtown,49.28945,-123.12665,https://www.airbnb.com/rooms/2876573,0,
201,Luxury Modern Apartment at Yaletown,Downtown,49.27795,-123.11734,https://www.airbnb.com/rooms/2944104,2,4.63
202,Funky Downtown Room in the West End,West End,49.29314,-123.13535,https://www.airbnb.com/rooms/2958786,17,4.78
203,Beautiful 3 BR Fully Furnished Home,Kensington-Cedar Cottage,49.24897,-123.08258,https://www.airbnb.com/rooms/2966088,1,4.7
204,Luxury Point Grey Home,West Point Grey,49.26338,-123.18966,https://www.airbnb.com/rooms/2985232,0,4.83
205,105 GOOD VALUE 2 BEDROOM in Quiet Westend,West End,49.28884,-123.13288,https://www.airbnb.com/rooms/2988185,0,5.0
206,116 1 Bedrm + Office,West End,49.28748,-123.1289,https://www.airbnb.com/rooms/2988465,0,5.0
207,117 DOWNTOWN LIVING / 1 Bdrm W Georgia St,Downtown,49.28814,-123.12629,https://www.airbnb.com/rooms/2997664,0,5.0
208,"2 Bed Sunny, Point Grey Patio Suite",West Point Grey,49.26229,-123.20888,https://www.airbnb.com/rooms/3021408,6,4.82
209,118 Executive suite at One Wall Centre 47th floor,Downtown,49.281147,-123.125954,https://www.airbnb.com/rooms/3040581,2,4.8
210,130 1 Bedroom Bright Corner Suite,Downtown,49.2796,-123.12152,https://www.airbnb.com/rooms/3040736,0,
211,Beautiful Apartment in Vancouver's Kitsilano,Kitsilano,49.26682,-123.15312,https://www.airbnb.com/rooms/3068198,0,5.0
212,Minutes to Jericho Beach & Downtown Vancouver,Kitsilano,49.2669,-123.18107,https://www.airbnb.com/rooms/3093219,2,5.0
213,STYLISH SUITE w/ Pool/Sauna/Hottub/Gym EXCELLENT $,Downtown,49.27622,-123.12585,https://www.airbnb.com/rooms/3100878,0,5.0
214,D2 - Upscale Stylish 1 BR,Downtown,49.28363,-123.11777,https://www.airbnb.com/rooms/3102120,0,4.5
215,140 1 Bedroom with 180 degree view,Downtown,49.27511,-123.12679,https://www.airbnb.com/rooms/3124378,0,5.0
216,Beautiful Mount Pleasant Loft,Mount Pleasant,49.26731,-123.09774,https://www.airbnb.com/rooms/3130486,11,4.79
217,Deluxe Minimalist Double Bedroom,Renfrew-Collingwood,49.24187,-123.03668,https://www.airbnb.com/rooms/3138351,0,4.63
218,"New suite in Kits, total privacy/spacious/quiet",Kitsilano,49.26366,-123.18138,https://www.airbnb.com/rooms/3142563,5,5.0
219,1BD Garden Suite in East Village,Hastings-Sunrise,49.2785,-123.05217,https://www.airbnb.com/rooms/3158555,22,4.81
220,Family Friendly Accessible East Van Home,Grandview-Woodland,49.26802,-123.07374,https://www.airbnb.com/rooms/3158923,0,
221,Beautiful Loft w/Balcony | New Reno | 2-levels,Downtown Eastside,49.2839,-123.10111,https://www.airbnb.com/rooms/3168686,10,4.75
222,"A Luxurious Downtown Urban Oasis with Parking, Awaits You.",Downtown,49.27914,-123.12016,https://www.airbnb.com/rooms/3177610,5,4.95
223,Stylish Minimalist Double Bedroom,Renfrew-Collingwood,49.24348,-123.03844,https://www.airbnb.com/rooms/3183304,0,4.6
224,Cozy modern suite near Main St (min stay 30 days),Riley Park,49.2498,-123.10378,https://www.airbnb.com/rooms/3215295,3,4.84
225,147 VIEW 1 Bedroom in Coal Harbour,Downtown,49.28875,-123.12417,https://www.airbnb.com/rooms/3230030,0,5.0
226,153 GREAT PRICE in West End,West End,49.27865,-123.13613,https://www.airbnb.com/rooms/3230170,0,4.67
227,161 1 Bedroom COAL HARBOUR SEAWALL,Downtown,49.28886,-123.12616,https://www.airbnb.com/rooms/3230315,1,5.0
228,Best Waterfront View in Vancouver! 2Br & Parking,Downtown,49.27359,-123.10051,https://www.airbnb.com/rooms/3239463,0,4.8
229,165 YALETOWN  VIEW / 1 BEDROOM + OFFICE,Downtown,49.27515,-123.11625,https://www.airbnb.com/rooms/3240635,0,4.5
230,Modern Downtown Park View Condo!,Downtown,49.2782,-123.10575,https://www.airbnb.com/rooms/3241017,2,4.93
231,170 1 BED- VIEW SUITE!,Downtown,49.28488,-123.11244,https://www.airbnb.com/rooms/3248395,1,4.67
232,"175 Studio at ""The Lions""",West End,49.28719,-123.12856,https://www.airbnb.com/rooms/3248971,1,5.0
233,"Bright ocean view home, 1 block from beach",Kitsilano,49.27197,-123.17999,https://www.airbnb.com/rooms/3258141,0,4.4
234,199 1 Bedroom West of Denman,West End,49.29225,-123.14202,https://www.airbnb.com/rooms/3301115,0,
235,228 Studio West Georgia Street VIEW,Downtown,49.29004,-123.12665,https://www.airbnb.com/rooms/3302983,0,5.0
236,Level | Two Bedroom Suite | Luxe Amenities,Downtown,49.27899,-123.12156,https://www.airbnb.com/rooms/3309313,0,4.0
237,Level | Studio | Modern Suite Downtown Vancouver,Downtown,49.27861,-123.12323,https://www.airbnb.com/rooms/3309584,0,4.75
238,"Fantastic downtown 2BR 2BATH w/ parking, gym, pool",Downtown,49.27963,-123.10874,https://www.airbnb.com/rooms/3311782,0,4.85
239,studio apartment,Hastings-Sunrise,49.28488,-123.02993,https://www.airbnb.com/rooms/3331054,1,4.82
240,Beach Home in the Sky - Pvt Bedroom & Washroom,West End,49.28455,-123.14071,https://www.airbnb.com/rooms/3331694,0,5.0
241,DT Private Room (Female Only),Downtown,49.27604,-123.12549,https://www.airbnb.com/rooms/3351181,0,4.77
242,Beautiful character Kitsilano home,Kitsilano,49.26215,-123.1803,https://www.airbnb.com/rooms/3379799,0,5.0
243,Great East Van home for Families!,Hastings-Sunrise,49.27402,-123.054,https://www.airbnb.com/rooms/3379810,0,5.0
244,D47 - 2BR luxury suite downtown,Downtown,49.27642,-123.12746,https://www.airbnb.com/rooms/3401626,0,5.0
245,Character Studio.Great DT location.,West End,49.28374,-123.12267,https://www.airbnb.com/rooms/3415750,4,4.66
246,"KITS POINT, Bamboo Garden by the Sea",Kitsilano,49.27523,-123.1524,https://www.airbnb.com/rooms/3425973,0,4.5
247,Stunning Vancouver Mountain Views,Renfrew-Collingwood,49.23322,-123.02764,https://www.airbnb.com/rooms/3430102,0,5.0
248,Cozy and Classy Gastown Loft,Downtown Eastside,49.28365,-123.10431,https://www.airbnb.com/rooms/3448674,7,4.79
249,"3 bedrooms, 3.5 bathrooms on 3 levels near beach",Kitsilano,49.26867,-123.16656,https://www.airbnb.com/rooms/3458717,20,4.77
250,EAST View- Steps to 29Ave SKYTRAIN Bright & Clean,Renfrew-Collingwood,49.24559,-123.04974,https://www.airbnb.com/rooms/3479638,1,4.45
251,2Br Suite Steps from Commercial Dr!,Grandview-Woodland,49.26665,-123.06936,https://www.airbnb.com/rooms/3484837,0,4.6
252,Upstairs in beautiful Pt Grey Vancouver,Dunbar Southlands,49.25782,-123.20131,https://www.airbnb.com/rooms/3534949,9,4.73
253,Strathcona Eclectic Modern Studio,Downtown Eastside,49.27928,-123.07949,https://www.airbnb.com/rooms/3563108,24,4.87
254,* Beautiful + Trendy 2 Bedroom Central Vancouver *,Downtown,49.27656,-123.11813,https://www.airbnb.com/rooms/3594666,0,4.42
255,Private Garden Suite on the Drive,Grandview-Woodland,49.27198,-123.0681,https://www.airbnb.com/rooms/3629071,59,4.92
256,Park View. Spacious Bright @ 29Ave Skytrain,Renfrew-Collingwood,49.24389,-123.0485,https://www.airbnb.com/rooms/3638973,2,4.2
257,279 HARD TO FIND! 3 BEDROOM DOWNTOWN! 27TH FLOOR,West End,49.28709,-123.12764,https://www.airbnb.com/rooms/3677710,0,5.0
258,Kriszta's Lovely Little Hideaway,Grandview-Woodland,49.27166,-123.06616,https://www.airbnb.com/rooms/3678989,25,4.71
259,Charming Cozy Condo Commercial Dr Licence#20159722,Grandview-Woodland,49.27412,-123.07405,https://www.airbnb.com/rooms/3679016,0,4.97
260,1 Block From The Ocean & Beach,Kitsilano,49.27252,-123.15201,https://www.airbnb.com/rooms/3698334,0,4.54
261,The Heart of Commercial Drive,Grandview-Woodland,49.27055,-123.071,https://www.airbnb.com/rooms/3704513,0,0.0
262,Luxurious New 2-BR Laneway House,West Point Grey,49.26013,-123.1891,https://www.airbnb.com/rooms/3742414,0,4.67
263,Large apt. with great Patio in Kits,Kitsilano,49.26268,-123.14881,https://www.airbnb.com/rooms/3766620,0,4.41
264,"""Comfortable,  Relaxing Garden Level home 4 beds”",Riley Park,49.2493,-123.10796,https://www.airbnb.com/rooms/3784311,15,4.77
265,Family home in Mount Pleasant,Mount Pleasant,49.25725,-123.08369,https://www.airbnb.com/rooms/3803319,1,4.83
266,"135 ""The Pointe""  view",Downtown,49.28873,-123.12582,https://www.airbnb.com/rooms/3811719,0,5.0
267,"Cosy room near scenic park, pvt BR",Riley Park,49.2357,-123.10428,https://www.airbnb.com/rooms/3812348,0,4.92
268,Downtown Vancouver No Car Required,West End,49.2852,-123.13391,https://www.airbnb.com/rooms/3857478,2,4.85
269,Perfect Find for Solo Traveler!,Mount Pleasant,49.26037,-123.10503,https://www.airbnb.com/rooms/3859085,35,4.97
270,Almond Park 2BR Suite - Perfect Kitsilano Location,Kitsilano,49.25926,-123.18271,https://www.airbnb.com/rooms/3887660,0,4.62
271,"Budget & Beautiful on ""The Drive"" + Gigabit Fiber",Grandview-Woodland,49.26756,-123.06667,https://www.airbnb.com/rooms/3888379,8,4.57
272,Exceptional Townhouse in Kitsilano,Kitsilano,49.2649,-123.16641,https://www.airbnb.com/rooms/3902807,0,
273,Gastown 1 Bed with North Shore view,Downtown Eastside,49.28254,-123.1064,https://www.airbnb.com/rooms/3916321,3,4.91
274,Best of Downtown-New 1Br&Parking,Downtown,49.28169,-123.11802,https://www.airbnb.com/rooms/3971726,0,4.92
275,Classic Kitsilano - Private Suite,Kitsilano,49.26763,-123.16039,https://www.airbnb.com/rooms/3979710,0,4.97
276,202-Deluxe Studio by Stanley Park,West End,49.29236,-123.13936,https://www.airbnb.com/rooms/3994011,3,4.8
277,Luxury Residence - Kitsilano - Best Neighborhood,Kitsilano,49.26562,-123.16259,https://www.airbnb.com/rooms/4007351,0,5.0
278,Modern Studio on Commercial Dr.,Grandview-Woodland,49.26645,-123.06893,https://www.airbnb.com/rooms/4016671,17,4.88
279,"Super Spacious, Central Apartment with a Stylish Vibe.",Mount Pleasant,49.25886,-123.10898,https://www.airbnb.com/rooms/4054111,15,4.95
280,"Spacious, Modern King 1BDR  2 Bath",Mount Pleasant,49.25869,-123.10753,https://www.airbnb.com/rooms/4070759,7,5.0
281,"Relax, Enjoy and Stay @ MYPlace",Downtown,49.27399,-123.12399,https://www.airbnb.com/rooms/4075378,2,4.65
282,Vineyard Suite @ Grandview House,Grandview-Woodland,49.27288,-123.06959,https://www.airbnb.com/rooms/4104870,2,4.74
283,"VANCOUVER, CANADA; WORLDMARK VANCOUVER",Downtown,49.28063,-123.12652,https://www.airbnb.com/rooms/4118193,0,
284,D64 - 2 br downtown luxury suite,Downtown,49.27949,-123.10711,https://www.airbnb.com/rooms/4120301,0,4.44
285,"Charming Suite In Historic Grandview Woodland""",Grandview-Woodland,49.27585,-123.06803,https://www.airbnb.com/rooms/4137579,18,4.87
286,Luxury Private room w/ Private Bath,Killarney,49.22826,-123.03193,https://www.airbnb.com/rooms/4145030,1,4.42
287,Mount Pleasant w/Mountain View,Riley Park,49.24598,-123.09127,https://www.airbnb.com/rooms/4224711,0,4.77
288,"CHIC DOWNTOWN w/ NESPRESSO, PARKING",Downtown Eastside,49.28109,-123.10671,https://www.airbnb.com/rooms/4244379,39,4.89
289,Yaletown High-Rise Studio Overlooking BC Place,Downtown,49.27707,-123.11507,https://www.airbnb.com/rooms/4318059,0,4.95
290,Kitsilano Garden level cozy Suite,Kitsilano,49.2669,-123.16656,https://www.airbnb.com/rooms/4348412,1,4.86
291,Private Hotel-Style Room & Bath Downtown Yaletown,Downtown,49.27334,-123.12764,https://www.airbnb.com/rooms/4351464,31,4.97
292,Cozy Family Friendly House - 3 bed+ den,Kensington-Cedar Cottage,49.25595,-123.07807,https://www.airbnb.com/rooms/4377155,0,4.87
293,PVT ROOM#1 w/PRIVATE entrance in NEW HOME,Renfrew-Collingwood,49.23695,-123.03251,https://www.airbnb.com/rooms/4395511,26,4.81
294,"3 bed, 2.5 bath - modern, central",Kitsilano,49.26184,-123.14763,https://www.airbnb.com/rooms/4404431,0,5.0
295,1 Bedroom Apartment on Kitsilano Beach,Kitsilano,49.27351,-123.15035,https://www.airbnb.com/rooms/4418911,5,4.91
296,D44 - 2 bedroom suite in Vancouver,Downtown,49.27294,-123.12493,https://www.airbnb.com/rooms/4423470,0,4.71
297,Modern Comfy Convenient Location,Strathcona,49.27403,-123.09921,https://www.airbnb.com/rooms/4447077,1,4.81
298,Beautiful home in Vancouver,Kitsilano,49.27315,-123.16093,https://www.airbnb.com/rooms/4465400,3,4.97
299,1-MONTH MINIMUM Townhouse in Beautiful False Creek,Fairview,49.26595,-123.12975,https://www.airbnb.com/rooms/4492009,0,4.69
300,Along the Garden Path,Kitsilano,49.26137,-123.16982,https://www.airbnb.com/rooms/4493377,7,4.85
301,"Private Cozy Room/Gym/Pool/Sauna,..",Downtown Eastside,49.28318,-123.11256,https://www.airbnb.com/rooms/4527258,1,4.68
302,"Quiet, Clean and Comfortable",West End,49.28532,-123.13434,https://www.airbnb.com/rooms/4558496,0,4.86
303,Spacious 2-bedrooms in West Point Grey,West Point Grey,49.26424,-123.20055,https://www.airbnb.com/rooms/4568364,28,4.77
304,Modern Condo Living,Mount Pleasant,49.27186,-123.10121,https://www.airbnb.com/rooms/4588807,0,4.88
305,D16 - 3 bedroom duplex,Downtown Eastside,49.27762,-123.08519,https://www.airbnb.com/rooms/4614439,0,4.0
306,Private top floor of lovely craftsman home,Mount Pleasant,49.26041,-123.09035,https://www.airbnb.com/rooms/4624838,10,4.74
307,Immaculate 1br Walk-Up Corner Unit,Renfrew-Collingwood,49.2346,-123.02652,https://www.airbnb.com/rooms/4630113,2,5.0
308,1 BD Coal Harbour condo in the city centre,Downtown,49.28901,-123.12785,https://www.airbnb.com/rooms/4633264,1,4.86
309,Luxury Townhouse w/ Private Rooftop Patio,Grandview-Woodland,49.28111,-123.07293,https://www.airbnb.com/rooms/4637856,1,5.0
310,Fabulous Heritage Loft,Downtown Eastside,49.28046,-123.10232,https://www.airbnb.com/rooms/4649490,0,4.97
311,StudioSweet,Riley Park,49.25107,-123.1025,https://www.airbnb.com/rooms/4659229,11,4.66
312,Arbutus Garden Suite,Kitsilano,49.26329,-123.18427,https://www.airbnb.com/rooms/4679955,0,4.88
313,2 Private Rooms Mountain View Home near The Drive,Mount Pleasant,49.26417,-123.08611,https://www.airbnb.com/rooms/4694311,0,
314,Gorgeous New House 2 Bedroom Suite,Renfrew-Collingwood,49.24961,-123.03755,https://www.airbnb.com/rooms/4701190,3,4.88
315,Cypress Laneway House,Kitsilano,49.26149,-123.18459,https://www.airbnb.com/rooms/4706507,0,4.93
316,"Sunset Beach Apt, Amazing Ocean Views & Amenities",Downtown,49.27444,-123.13221,https://www.airbnb.com/rooms/4747128,0,4.96
317,Trout Lake Urban Coach House,Kensington-Cedar Cottage,49.25244,-123.0623,https://www.airbnb.com/rooms/4787924,3,4.91
318,W1 - Waterfront Yaletown Condo with City & Water Views,Downtown,49.27147,-123.12661,https://www.airbnb.com/rooms/4849995,0,5.0
319,A Sunny Suite Up Main,Riley Park,49.24326,-123.10298,https://www.airbnb.com/rooms/4856515,1,4.57
320,Private guest space in heritage house,Downtown Eastside,49.27813,-123.09127,https://www.airbnb.com/rooms/4871974,2,4.85
321,Elegant Private Suite off Broadway,Mount Pleasant,49.26147,-123.08229,https://www.airbnb.com/rooms/4888430,55,4.93
322,Granville Isl water/pastoral view,Fairview,49.26616,-123.12985,https://www.airbnb.com/rooms/4942126,8,4.95
323,2 storey executive loft downtown + 1 parking,Downtown,49.27823,-123.12071,https://www.airbnb.com/rooms/4958622,9,4.57
324,Bright & Light Main St. Garden Suite,Riley Park,49.24531,-123.09533,https://www.airbnb.com/rooms/4995055,3,4.9
325,Spacious Character in Point Grey,West Point Grey,49.25965,-123.20512,https://www.airbnb.com/rooms/5005722,3,4.89
326,Gorgeous 1-Bdr – Walk Everywhere!,Downtown,49.27993,-123.1263,https://www.airbnb.com/rooms/5040320,7,4.95
327,Vancouver SUPER location view 1-bedroom suite.,West End,49.28165,-123.12841,https://www.airbnb.com/rooms/5089343,0,4.97
328,O1 - High Rise Yaletown Condo with City and Park Views,Downtown,49.27508,-123.12388,https://www.airbnb.com/rooms/5154272,1,4.92
329,Downtown  Furnished one bedroom office parking den,Downtown,49.28337,-123.11659,https://www.airbnb.com/rooms/5183901,3,4.82
330,"Entire basement bachelor suite, separate entrance",Kensington-Cedar Cottage,49.25867,-123.07337,https://www.airbnb.com/rooms/5257529,9,4.83
331,Main Street Apartment,Mount Pleasant,49.2644,-123.09873,https://www.airbnb.com/rooms/5278749,0,4.91
332,"Bright, fully furnished suite",Fairview,49.25872,-123.12185,https://www.airbnb.com/rooms/5315811,0,4.5
333,1 bedroom 1 Den Parking Fibre fast WiFi downtown,Downtown,49.28045,-123.10871,https://www.airbnb.com/rooms/5347437,16,4.4
334,Your private suite in Vancouver!,Victoria-Fraserview,49.232,-123.07403,https://www.airbnb.com/rooms/5354597,0,4.77
335,Artistic Space Close to Gastown,Downtown Eastside,49.28287,-123.09425,https://www.airbnb.com/rooms/5391067,0,4.66
336,long term Downtown Modern One bedroom Den Parking,Downtown,49.27841,-123.10815,https://www.airbnb.com/rooms/5415806,1,3.5
337,Gorgeous City Views from a Relaxed Apartment,West End,49.2827,-123.1241,https://www.airbnb.com/rooms/5423637,5,4.88
338,A Mount Pleasant Gem,Mount Pleasant,49.25853,-123.08005,https://www.airbnb.com/rooms/5459210,0,4.6
339,"Large, Modern & Private Space",Kensington-Cedar Cottage,49.24731,-123.08777,https://www.airbnb.com/rooms/5471844,126,4.91
340,Cozy and Beautiful 3BD Home,Renfrew-Collingwood,49.24243,-123.04059,https://www.airbnb.com/rooms/5482135,3,4.68
341,Two Bedrooms in Basement (Kits) - close to Beach,Kitsilano,49.27105,-123.18246,https://www.airbnb.com/rooms/5490474,4,4.76
342,Townhouse w/ Private Rooftop & Park View,Downtown Eastside,49.2804,-123.10571,https://www.airbnb.com/rooms/5522937,0,4.5
343,"Charming, bright and convenient 2-bedroom suite",Kensington-Cedar Cottage,49.24429,-123.0884,https://www.airbnb.com/rooms/5538655,0,5.0
344,Introvert's Rest in Luxury Hostel,Kerrisdale,49.22464,-123.13997,https://www.airbnb.com/rooms/5562730,3,4.71
345,"Private room for ONE person, All incl",Downtown,49.28506,-123.11247,https://www.airbnb.com/rooms/5567902,0,4.17
346,Downtown Vancouver Studio,Downtown,49.27832,-123.12109,https://www.airbnb.com/rooms/5571829,4,5.0
347,Beautiful 2-bd Modern home,Grandview-Woodland,49.27549,-123.06406,https://www.airbnb.com/rooms/5602997,22,4.96
348,Comfy Garden Suite Close to Town,South Cambie,49.24942,-123.12413,https://www.airbnb.com/rooms/5631903,11,4.83
349,"Modern, Urban Commercial Drive Home",Grandview-Woodland,49.26914,-123.05684,https://www.airbnb.com/rooms/5642121,19,4.81
350,Cozy one bedroom in coal harbour.,West End,49.28722,-123.12588,https://www.airbnb.com/rooms/5670706,0,4.93
351,Kitsilano Retreat,Kitsilano,49.27016,-123.17693,https://www.airbnb.com/rooms/5698137,0,4.94
352,Mosaic Suite @ Grandview House,Grandview-Woodland,49.27152,-123.06947,https://www.airbnb.com/rooms/5747556,2,4.8
353,Modern Condo on Keefer Street (Downtown/Chinatown),Downtown Eastside,49.27851,-123.09941,https://www.airbnb.com/rooms/5759976,0,4.87
354,"Bright, convenient studio",Grandview-Woodland,49.28512,-123.05801,https://www.airbnb.com/rooms/5761885,0,5.0
355,150 One Bedroom at the Wall Centre,Downtown,49.28084,-123.12598,https://www.airbnb.com/rooms/5795871,0,5.0
356,"Low Monthly - Davie, Robson, & Scenic Stanley Park",West End,49.28698,-123.13246,https://www.airbnb.com/rooms/5807056,1,4.8
357,Spectacular View in Yaletown & Park,Downtown,49.27453,-123.12461,https://www.airbnb.com/rooms/5808094,0,4.91
358,"Modern Guesthouse Suite, 5 min walk to Skytrain",Renfrew-Collingwood,49.24554,-123.05089,https://www.airbnb.com/rooms/5814747,45,4.91
359,Private 1st Class Loft Suite,Kitsilano,49.26698,-123.16059,https://www.airbnb.com/rooms/5815477,0,5.0
360,Bright & modern main floor bedroom in quiet home.,Dunbar Southlands,49.24347,-123.17806,https://www.airbnb.com/rooms/5852402,3,4.89
361,East Vancouver Two Level View Loft,Grandview-Woodland,49.28669,-123.06221,https://www.airbnb.com/rooms/5857194,38,4.73
362,"New! Modern, Luxury Vancouver Condo",Mount Pleasant,49.26867,-123.10487,https://www.airbnb.com/rooms/5873868,0,4.71
363,Newly Renovated 1 Bedroom w Den Downtown,West End,49.28941,-123.12908,https://www.airbnb.com/rooms/5877217,2,4.9
364,Private. Trendy Neighbourhood. Sleeps 5.,Grandview-Woodland,49.27675,-123.06537,https://www.airbnb.com/rooms/5881530,18,4.93
365,Contemporary Yaletown 1 bedroom,Downtown,49.27818,-123.13048,https://www.airbnb.com/rooms/5961772,0,
366,Beautiful Heritage home with 3 bedrooms,Grandview-Woodland,49.27572,-123.06039,https://www.airbnb.com/rooms/6018284,0,4.68
367,"Spacious 4br home by Jericho beach, UBC",West Point Grey,49.26442,-123.19224,https://www.airbnb.com/rooms/6032973,0,5.0
368,Bright family home in Trendy Main Street Area,Riley Park,49.24506,-123.09533,https://www.airbnb.com/rooms/6045404,2,4.93
369,Executive Heritage Classic - Kits,Kitsilano,49.26774,-123.1611,https://www.airbnb.com/rooms/6151520,0,5.0
370,Elegant Family Home on Seawall,Fairview,49.26649,-123.12179,https://www.airbnb.com/rooms/6166558,0,4.6
371,Luxury 2Bdrm near QE Park + King Edward Skytrain,Riley Park,49.24748,-123.10906,https://www.airbnb.com/rooms/6184381,11,4.65
372,Bright Suite Bikable & Near Transit,Hastings-Sunrise,49.26407,-123.03992,https://www.airbnb.com/rooms/6226872,7,4.71
373,Luxury living,Downtown,49.27809,-123.12919,https://www.airbnb.com/rooms/6239107,0,4.64
374,Vancouver Sanctuary Mount Pleasant & Rooftop Patio,Mount Pleasant,49.26329,-123.09956,https://www.airbnb.com/rooms/6249125,13,4.98
375,Downtown Vancouver,Downtown,49.27912,-123.12066,https://www.airbnb.com/rooms/6270968,0,4.84
376,Character home ideal for families!,Mount Pleasant,49.26071,-123.09265,https://www.airbnb.com/rooms/6324453,5,4.85
377,Elegant Cottage Style Suite,Riley Park,49.25076,-123.10873,https://www.airbnb.com/rooms/6347338,2,4.89
378,Downtown Vancouver 2BR by BC PLACE,Downtown,49.27729,-123.11603,https://www.airbnb.com/rooms/6364673,0,4.72
379,Large Heritage Flat in East Van,Grandview-Woodland,49.2716,-123.06175,https://www.airbnb.com/rooms/6365193,0,4.8
380,Luxury Upscale Condo-Best Location,Downtown,49.28104,-123.11013,https://www.airbnb.com/rooms/6405277,0,4.5
381,Relax in the city,Hastings-Sunrise,49.26624,-123.04491,https://www.airbnb.com/rooms/6407591,1,4.5
382,Penthouse with Private Rooftop Deck,West End,49.27942,-123.13355,https://www.airbnb.com/rooms/6416204,0,4.94
383,300 sqf  Ensuite,Renfrew-Collingwood,49.24373,-123.04979,https://www.airbnb.com/rooms/6416686,1,4.18
384,"Amazing Views, Designer Apartment, Netflix Location Shoot",Downtown Eastside,49.28113,-123.10764,https://www.airbnb.com/rooms/6425616,2,4.88
385,Quiet Kerrisdale location,Kerrisdale,49.22694,-123.15632,https://www.airbnb.com/rooms/6435598,0,4.96
386,Hotel Apartment,West End,49.29241,-123.13471,https://www.airbnb.com/rooms/6452450,0,4.75
387,Charming Mount Pleasant Apartment,Mount Pleasant,49.26644,-123.08922,https://www.airbnb.com/rooms/6493890,0,4.81
388,Lovely 3-bedroom home,Grandview-Woodland,49.27177,-123.06063,https://www.airbnb.com/rooms/6494884,1,4.94
389,Upper Level Private Cozy Bedroom near PNE,Hastings-Sunrise,49.27773,-123.03318,https://www.airbnb.com/rooms/6585636,0,4.61
390,Lovely Kits Character Home - Close to beach,Kitsilano,49.26629,-123.18524,https://www.airbnb.com/rooms/6590164,0,4.5
391,Heart of downtown  Vancouver,Downtown,49.27806,-123.13061,https://www.airbnb.com/rooms/6602481,22,4.63
392,Cozy & compact modern bachelor suite,Renfrew-Collingwood,49.25472,-123.03387,https://www.airbnb.com/rooms/6611269,4,4.83
393,Edge of Kitsilano/close to UBC,Kitsilano,49.26049,-123.17747,https://www.airbnb.com/rooms/6645469,28,4.95
394,Spacious and bright 3 bedroom 5min to downtown,Mount Pleasant,49.26494,-123.10534,https://www.airbnb.com/rooms/6646902,1,4.73
395,"Heart of Downtown, Amazing View in Coal Harbour!",West End,49.28695,-123.12654,https://www.airbnb.com/rooms/6660457,1,4.84
396,Apartment,Kitsilano,49.27183,-123.15549,https://www.airbnb.com/rooms/6689753,0,4.26
397,Beautiful Bright Room In Kitsilano Heritage Home,Kitsilano,49.2668,-123.15955,https://www.airbnb.com/rooms/6692629,9,5.0
398,"Beautiful, quiet apmt in vibrant neighbourhood.",Grandview-Woodland,49.27534,-123.0659,https://www.airbnb.com/rooms/6730306,0,4.92
399,Modern Micro Suite near Hip Main St,Riley Park,49.2482,-123.09623,https://www.airbnb.com/rooms/6732143,10,4.87
400,"Fresh-look, 3-bedroom suite",Riley Park,49.24197,-123.10083,https://www.airbnb.com/rooms/6765180,1,4.0
401,Downtown Condo 1 bedroom 2 bathrooms - whole place,Downtown,49.29019,-123.12637,https://www.airbnb.com/rooms/6798565,0,4.95
402,"Bright room, Amazing View, Heart of Downtown",Downtown,49.28945,-123.12525,https://www.airbnb.com/rooms/6808688,2,4.79
403,Roomy 2BR apt near Downtown - Pets negotiable.,Downtown Eastside,49.27853,-123.09265,https://www.airbnb.com/rooms/6812180,25,4.9
404,Spacious Downtown Oasis with Views,Downtown,49.27878,-123.11624,https://www.airbnb.com/rooms/6836507,0,0.0
405,Spacious heritage 'loft' near VGH,Fairview,49.26408,-123.12831,https://www.airbnb.com/rooms/6854409,4,4.83
406,Heritage Home with Surreal Setting,Downtown Eastside,49.27954,-123.0919,https://www.airbnb.com/rooms/6863617,0,4.88
407,Spacious 2-bed Private Suite,Kensington-Cedar Cottage,49.2439,-123.08738,https://www.airbnb.com/rooms/6871805,0,4.85
408,Collingwood Cottage near Dunbar,Dunbar Southlands,49.2539,-123.17975,https://www.airbnb.com/rooms/6897283,0,4.94
409,Cozy Loft in the heart of Vancouver,Kerrisdale,49.22347,-123.14169,https://www.airbnb.com/rooms/6939529,17,4.75
410,"Tastefully modern, central location",Mount Pleasant,49.26484,-123.09867,https://www.airbnb.com/rooms/6975013,0,4.76
411,Stay here for your family ready-made Christmas!,Sunset,49.217,-123.09479,https://www.airbnb.com/rooms/6977279,4,4.86
412,"WestEndZen, Shared Garden Suite.",West End,49.28373,-123.13267,https://www.airbnb.com/rooms/6993905,36,4.89
413,4BR Vancouver Special @ Langara,Sunset,49.22261,-123.10396,https://www.airbnb.com/rooms/7022315,0,4.76
414,POOL HAVEN in the Centre of it All!,Kerrisdale,49.22609,-123.16761,https://www.airbnb.com/rooms/7025378,15,4.97
415,Boutique Laneway Home,Kensington-Cedar Cottage,49.24631,-123.08651,https://www.airbnb.com/rooms/7027063,0,5.0
416,Kits Keep: Beautiful 1 Bedroom Suite in Kitsilano!,Kitsilano,49.25962,-123.16809,https://www.airbnb.com/rooms/7037160,15,4.91
417,Furnished 1 bed suite in Vancouver!,Victoria-Fraserview,49.2308,-123.07286,https://www.airbnb.com/rooms/7054627,3,4.9
418,Loft in Yaletown,Downtown,49.27832,-123.12194,https://www.airbnb.com/rooms/7071924,25,4.32
419,Kensington Basement Suite,Kensington-Cedar Cottage,49.23738,-123.06686,https://www.airbnb.com/rooms/7091335,0,4.5
420,Private Room In House,Kitsilano,49.2693,-123.15204,https://www.airbnb.com/rooms/7094995,17,4.8
421,City Townhouse with Private Rooftop Deck and Parking,Downtown,49.27799,-123.10527,https://www.airbnb.com/rooms/7109101,2,4.95
422,Granville Island/False Creek/pastoral view,Fairview,49.26746,-123.12785,https://www.airbnb.com/rooms/7112627,1,5.0
423,Stylish Strathcona Home 2 Bed + Studio,Downtown Eastside,49.27563,-123.08911,https://www.airbnb.com/rooms/7143428,11,4.92
424,Family Friendly Home Minutes from Downtown and YVR,Sunset,49.22013,-123.09624,https://www.airbnb.com/rooms/7146259,20,4.46
425,2BR Oceanview in Downtown Vancouver in Springtime!,West End,49.27842,-123.133,https://www.airbnb.com/rooms/7148404,2,4.67
426,LARGE CENTRAL MODERN FURNISHED LOFT,Mount Pleasant,49.26686,-123.09706,https://www.airbnb.com/rooms/7162553,5,4.42
427,Fully private space with separate entrance,Grandview-Woodland,49.27042,-123.06965,https://www.airbnb.com/rooms/7183413,0,4.97
428,Cottage Collingwood 1-Bedroom Suite at Bsmt level,Dunbar Southlands,49.2559,-123.18094,https://www.airbnb.com/rooms/7206626,1,4.78
429,Introvert’s Sanctuary in Luxury Hostel,Oakridge,49.22437,-123.13893,https://www.airbnb.com/rooms/7341791,19,4.7
430,"Character Romy""s suite",Kitsilano,49.26276,-123.14645,https://www.airbnb.com/rooms/7365327,5,4.93
431,Little House - Kitsilano Point Grey,West Point Grey,49.26405,-123.18769,https://www.airbnb.com/rooms/7432239,2,4.96
432,Modern house in trendy Main Street neighbourhood.,Riley Park,49.2524,-123.10314,https://www.airbnb.com/rooms/7438069,25,4.88
433,Urban getaway by the Lake,Kensington-Cedar Cottage,49.25283,-123.06842,https://www.airbnb.com/rooms/7491868,0,4.0
434,Private Ensuite in Scenic Kits - 5 min to UBC!,West Point Grey,49.26258,-123.18716,https://www.airbnb.com/rooms/7494656,0,4.73
435,Room Close to Downtown/VGH/BCCH II,South Cambie,49.25031,-123.1205,https://www.airbnb.com/rooms/7518690,0,4.87
436,Room Close to Downtown/VGH/BCCH III,South Cambie,49.25099,-123.12128,https://www.airbnb.com/rooms/7519374,0,4.63
437,Tree Tops loft in Mount Pleasant,Mount Pleasant,49.26595,-123.09794,https://www.airbnb.com/rooms/7548858,23,4.88
438,Sunny Kits loft in character home,Kitsilano,49.2661,-123.1833,https://www.airbnb.com/rooms/7574951,2,4.93
439,Private room suite in a new house on 41st Avenue,Renfrew-Collingwood,49.23383,-123.04672,https://www.airbnb.com/rooms/7581353,6,4.83
440,Beautiful ground level suite in Character home,Mount Pleasant,49.26047,-123.08027,https://www.airbnb.com/rooms/7583407,10,4.88
441,238 One Bedroom at the Savoy,Downtown,49.27777,-123.11919,https://www.airbnb.com/rooms/7596005,0,4.5
442,Luxurious Master Bedroom in Kits,West Point Grey,49.26108,-123.18723,https://www.airbnb.com/rooms/7635114,11,4.63
443,Vintage Guest Loft in Converted Warehouse,Downtown Eastside,49.28185,-123.10456,https://www.airbnb.com/rooms/7639521,66,4.95
444,"3Bd house, great location, big comfy beds",Grandview-Woodland,49.27576,-123.06508,https://www.airbnb.com/rooms/7674840,0,4.6
445,Japanese Style One Bedroom Suite,Killarney,49.22239,-123.03277,https://www.airbnb.com/rooms/7696149,0,4.88
446,Luxury Downtown+Free Parking+Gym+Pool+Sauna+HotTub,Downtown,49.28043,-123.10787,https://www.airbnb.com/rooms/7701543,0,4.78
447,Townhouse w/ private ROOFTOP PATIO (and parking),Downtown Eastside,49.28062,-123.10494,https://www.airbnb.com/rooms/7716459,0,4.86
448,"Bella's Heritage House, City Hall",Mount Pleasant,49.25979,-123.11194,https://www.airbnb.com/rooms/7741348,33,4.82
449,"Bright, Playful and Eclectic Mt Pleasant Loft",Mount Pleasant,49.26634,-123.09807,https://www.airbnb.com/rooms/7747325,0,
450,Stylish Yaletown Condo with Fireplace and Den,Downtown,49.27765,-123.11536,https://www.airbnb.com/rooms/7748307,0,4.6
451,Spacious 1 bed/2 bath apt downtown,Downtown,49.27667,-123.12752,https://www.airbnb.com/rooms/7749728,0,5.0
452,View Penthouse by the beach in Kits,Kitsilano,49.26984,-123.17918,https://www.airbnb.com/rooms/7787115,0,4.86
453,New Private Room Near Skytrain (1),Marpole,49.21311,-123.11348,https://www.airbnb.com/rooms/7788230,1,4.66
454,Cozy and Bright Railtown Sanctuary,Downtown Eastside,49.28253,-123.0918,https://www.airbnb.com/rooms/7804061,15,4.85
455,One Bedroom Apartment,Mount Pleasant,49.26443,-123.09925,https://www.airbnb.com/rooms/7812180,10,4.48
456,Spacious loft next to Granville Is.,Fairview,49.26559,-123.14014,https://www.airbnb.com/rooms/7819691,0,4.78
457,private room for female only,Renfrew-Collingwood,49.25211,-123.03292,https://www.airbnb.com/rooms/7822189,0,4.81
458,4time Vancouver SuperHost!,Renfrew-Collingwood,49.25101,-123.03313,https://www.airbnb.com/rooms/7822875,0,4.76
459,Family home near Main St.,Riley Park,49.24672,-123.09614,https://www.airbnb.com/rooms/7827146,5,5.0
460,Bright Apartment in Downtown City Centre,Downtown,49.27656,-123.13123,https://www.airbnb.com/rooms/7827790,0,5.0
461,Open Concept Gastown Studio,Downtown Eastside,49.27991,-123.1054,https://www.airbnb.com/rooms/7838721,3,4.67
462,New Private Room Near Skytrain (2),Marpole,49.21306,-123.11307,https://www.airbnb.com/rooms/7858563,0,4.62
463,Private Room+Bath near skytrain(3),Marpole,49.21295,-123.11193,https://www.airbnb.com/rooms/7858932,0,4.81
464,Private Room+Bath near skytrain(4),Marpole,49.21231,-123.11193,https://www.airbnb.com/rooms/7860202,0,4.58
465,New Room+ Bath Near Skytrain (5),Marpole,49.21121,-123.11208,https://www.airbnb.com/rooms/7860338,2,4.73
466,New Private 2 BR+Bath near Skytrain,Marpole,49.21285,-123.11361,https://www.airbnb.com/rooms/7860380,0,4.82
467,In the Heart of Vancouver...,Riley Park,49.25458,-123.09297,https://www.airbnb.com/rooms/7880935,4,4.62
468,CleanModern 2BD/2BA Yaletown,Downtown,49.2779,-123.12062,https://www.airbnb.com/rooms/7921570,0,4.65
469,"Nice apartment, middle of Vancouver",Mount Pleasant,49.26339,-123.08925,https://www.airbnb.com/rooms/7931005,0,4.73
470,Live the Penthouse Life!,Downtown Eastside,49.27862,-123.09962,https://www.airbnb.com/rooms/7936342,2,4.93
471,New house - #2 CENTRAL VANCOUVER,Kensington-Cedar Cottage,49.25243,-123.0691,https://www.airbnb.com/rooms/7972205,3,4.94
472,Gorgeous new townhouse with 2 King Size beds,Sunset,49.23191,-123.09369,https://www.airbnb.com/rooms/7986252,0,5.0
473,Central VANCOUVER - Large queen bed #3,Kensington-Cedar Cottage,49.25053,-123.06958,https://www.airbnb.com/rooms/7988085,0,4.84
474,M1 - Comfy Chic 2 Bedroom Yaletown Condo,Downtown,49.27483,-123.11601,https://www.airbnb.com/rooms/7989551,2,4.96
475,Historic Cedar Cottage Hideaway,Kensington-Cedar Cottage,49.24963,-123.07277,https://www.airbnb.com/rooms/7997635,4,4.64
476,Private suite in Collingwood area,Killarney,49.23062,-123.03803,https://www.airbnb.com/rooms/8014842,0,4.83
477,Bright cozy home by beach and DT,West End,49.28311,-123.13196,https://www.airbnb.com/rooms/8017360,0,
478,Spectacular views close to all!,Strathcona,49.27604,-123.0988,https://www.airbnb.com/rooms/8047959,5,4.87
479,Beach Front Home with Large Patios in Kitsilano!!!,Kitsilano,49.27465,-123.15155,https://www.airbnb.com/rooms/8107160,0,4.8
480,Downtown Yaletown 2bed 2bath,Downtown,49.27805,-123.12536,https://www.airbnb.com/rooms/8118622,0,4.26
481,Large studio for 1 next to Stanley Park West End,West End,49.29034,-123.13968,https://www.airbnb.com/rooms/8167795,0,5.0
482,Kitsilano Home/Country Chic/Near Beach/30 Days+,Kitsilano,49.267456,-123.153473,https://www.airbnb.com/rooms/8171107,0,4.88
483,Beautiful 2 bedroom home in Vancouver,Riley Park,49.25368,-123.09956,https://www.airbnb.com/rooms/8210512,0,4.25
484,Beautiful Kits Heritage Home,Kitsilano,49.2688,-123.18376,https://www.airbnb.com/rooms/8210879,0,4.0
485,Carmo Place - Your Cozy Suite,Grandview-Woodland,49.26377,-123.05951,https://www.airbnb.com/rooms/8252104,17,4.99
486,Heart of Downtown Vancouver,Downtown,49.28091,-123.11861,https://www.airbnb.com/rooms/8254293,0,4.8
487,Designer Apartment with Ocean Views,West End,49.28106,-123.13655,https://www.airbnb.com/rooms/8292123,4,4.97
488,Modern Studio Apartment,Strathcona,49.27662,-123.096,https://www.airbnb.com/rooms/8356680,17,4.87
489,2 Bdrm Yaletown Apt - Ocean View,Downtown,49.2732,-123.12485,https://www.airbnb.com/rooms/8371276,2,4.88
490,Executive Studio Apartment,West End,49.28082,-123.13453,https://www.airbnb.com/rooms/8371411,2,4.97
491,East Vancouver Character house,Grandview-Woodland,49.26464,-123.0651,https://www.airbnb.com/rooms/8423376,0,4.8
492,Home sweet home,Fairview,49.25904,-123.12737,https://www.airbnb.com/rooms/8429321,21,4.97
493,Large 1 bedroom with balcony and free parking,Mount Pleasant,49.26132,-123.08084,https://www.airbnb.com/rooms/8434517,1,4.75
494,Modern downtown one-bedroom condo,Downtown,49.2785,-123.10929,https://www.airbnb.com/rooms/8470134,0,4.96
495,Yaletown 1 bedroom apartment,Downtown,49.27547,-123.12492,https://www.airbnb.com/rooms/8520011,0,4.38
496,Stylish Executive Condo (License 21-156380),Downtown,49.27895,-123.12466,https://www.airbnb.com/rooms/8541289,18,4.44
497,Private Suite at Cambie Village - Monthly Rental,Riley Park,49.25521,-123.11131,https://www.airbnb.com/rooms/8558636,1,4.9
498,Spacious Sunny South Room in East Vancouver,Renfrew-Collingwood,49.2581,-123.05409,https://www.airbnb.com/rooms/8571883,8,4.83
499,"Bright boutique studio, Mt Pleasant",Riley Park,49.24796,-123.09164,https://www.airbnb.com/rooms/8616836,0,5.0
500,"West Kits Seaside,  modern executive garden suite",Kitsilano,49.27237,-123.18102,https://www.airbnb.com/rooms/8629414,3,5.0
501,Updated Character Home in Heart of Kitsilano,Kitsilano,49.26029,-123.17737,https://www.airbnb.com/rooms/8647934,0,4.88
502,Room with amazing view to the Northshore mountains,Downtown Eastside,49.27743,-123.10022,https://www.airbnb.com/rooms/8648704,15,4.84
503,Vancouver Green Garden Oasis,Sunset,49.22846,-123.09686,https://www.airbnb.com/rooms/8672239,18,4.9
504,Bright room near Mount Pleasant W/ Self Check-in,Kensington-Cedar Cottage,49.25203,-123.08339,https://www.airbnb.com/rooms/8685139,14,4.77
505,Spacious retreat in the heart of Kitsilano,Kitsilano,49.2678,-123.16855,https://www.airbnb.com/rooms/8697713,0,5.0
506,Quiet Bedroom in Super Location,Riley Park,49.24984,-123.11016,https://www.airbnb.com/rooms/8721425,0,4.77
507,Mt Pleasant - Large 2 Bedroom Suite BL# 21-157117,Mount Pleasant,49.25945,-123.09143,https://www.airbnb.com/rooms/8743634,16,4.82
508,Large & Bright Guest Room with Sitting area,Renfrew-Collingwood,49.25735,-123.05444,https://www.airbnb.com/rooms/8763381,0,4.74
509,Beautiful Home with Private Rooms-2,South Cambie,49.25568,-123.11845,https://www.airbnb.com/rooms/8777498,0,5.0
510,Modern Urban Getaway - Monthly Rentals,Mount Pleasant,49.27047,-123.10158,https://www.airbnb.com/rooms/8780405,0,4.97
511,Tranquil West bedroom,Renfrew-Collingwood,49.25754,-123.05546,https://www.airbnb.com/rooms/8801413,2,4.87
512,Mount Pleasant Makespace,Mount Pleasant,49.26304,-123.09238,https://www.airbnb.com/rooms/8868498,22,4.91
513,Vancouver with central access to all areas.,Hastings-Sunrise,49.28,-123.03955,https://www.airbnb.com/rooms/8871507,0,4.95
514,Trendy apt in trendy neighborhood,Downtown Eastside,49.28033,-123.1008,https://www.airbnb.com/rooms/8900687,4,4.8
515,"►Great Location - Modern, Quiet, Clean & Healthy",West End,49.28679,-123.13305,https://www.airbnb.com/rooms/8929055,0,4.95
516,Quiet Garden Retreat on Main Street,Sunset,49.21915,-123.10273,https://www.airbnb.com/rooms/8935357,0,4.95
517,STUDIO English Bay. Great Location! Free Parking!,West End,49.2804,-123.13603,https://www.airbnb.com/rooms/8941830,1,4.49
518,New furnished room in Spain house !(Female only),Hastings-Sunrise,49.27371,-123.05007,https://www.airbnb.com/rooms/9016662,0,
519,Downtown Living -  2 Bedroom with Parking (E2),Downtown,49.28295,-123.12323,https://www.airbnb.com/rooms/9046022,3,4.94
520,4 Bedroom House in central Vancouver,Kensington-Cedar Cottage,49.24794,-123.08124,https://www.airbnb.com/rooms/9074376,0,4.5
521,The Entire 3 Bedroom House Minutes from Downtown,Mount Pleasant,49.26023,-123.09239,https://www.airbnb.com/rooms/9198515,0,4.93
522,high rise studio apartment near skytrain,Victoria-Fraserview,49.21929,-123.07629,https://www.airbnb.com/rooms/9201061,0,2.0
523,Beach Apartment-Kitsilano Beach - 30 day+ !,Kitsilano,49.27098,-123.16064,https://www.airbnb.com/rooms/9237061,5,4.18
524,Private Comfort & Amazing Views - Infant upstairs!,Hastings-Sunrise,49.28959,-123.05161,https://www.airbnb.com/rooms/9259030,0,4.7
525,Kitsilano 1 bedroom 1.5 bath near the beach.,Kitsilano,49.26672,-123.16668,https://www.airbnb.com/rooms/9315705,0,5.0
526,Private Home,Riley Park,49.24738,-123.10184,https://www.airbnb.com/rooms/9318501,0,4.88
527,Female only - long term until December,Kensington-Cedar Cottage,49.25716,-123.0724,https://www.airbnb.com/rooms/9319614,0,4.71
528,Cozy 1 bdr studio with kitchen,Renfrew-Collingwood,49.26017,-123.05562,https://www.airbnb.com/rooms/9463446,0,4.6
529,Bright Urban Retreat,Downtown,49.28143,-123.1256,https://www.airbnb.com/rooms/9490187,0,5.0
530,"Modern, new laneway house.",Hastings-Sunrise,49.26346,-123.0526,https://www.airbnb.com/rooms/9515931,7,4.89
531,2 Bedrm Main near Commercial Drive,Grandview-Woodland,49.28003,-123.06204,https://www.airbnb.com/rooms/9533778,0,4.72
532,Kitsilano beach renovated one bedroom,Kitsilano,49.27092,-123.15156,https://www.airbnb.com/rooms/9547475,0,4.33
533,Luxury DT Loft w/ King Bed & Parking! 30 day min.!,Downtown,49.27546,-123.12481,https://www.airbnb.com/rooms/9562576,1,4.93
534,Modern urban flat with a walk score of 10/10!,Mount Pleasant,49.26587,-123.0999,https://www.airbnb.com/rooms/9592923,23,4.83
535,Amazing 1 bedroom apartment with parking,Downtown,49.27752,-123.11993,https://www.airbnb.com/rooms/9615787,7,4.76
536,Stunning views in heart of Gastown,Downtown Eastside,49.28377,-123.1061,https://www.airbnb.com/rooms/9636681,2,5.0
537,Gastown/Railtown Loft in Vancouver,Downtown Eastside,49.28389,-123.0991,https://www.airbnb.com/rooms/9700554,3,4.95
538,Private Modern 2 BR Condo,Riley Park,49.25357,-123.09021,https://www.airbnb.com/rooms/9729113,0,5.0
539,"Kitsilano 2 bedrooms, 2.5 baths near the beach.",Kitsilano,49.26682,-123.16654,https://www.airbnb.com/rooms/9867831,3,5.0
540,Hotel Room Double Bed + Shared Bathrooms,Downtown Eastside,49.28198,-123.1112,https://www.airbnb.com/rooms/9901027,13,4.86
541,Sweet Suite Cambie Village,Riley Park,49.25614,-123.11331,https://www.airbnb.com/rooms/9901028,2,4.94
542,"Bright, Lovely, Spacious, Central",Riley Park,49.2564,-123.09368,https://www.airbnb.com/rooms/9979381,2,4.8
543,Gorgeous Duplex in Kitsilano,Kitsilano,49.25956,-123.15474,https://www.airbnb.com/rooms/10060002,0,5.0
544,Downtown Davie 1 bed condo 720sq/ft,Downtown,49.27782,-123.12991,https://www.airbnb.com/rooms/10154874,0,4.85
545,Zen Den Kitsilano Beach Paradise,Kitsilano,49.27269,-123.15382,https://www.airbnb.com/rooms/10231101,3,4.5
546,Great Space in the East Village,Hastings-Sunrise,49.27541,-123.04736,https://www.airbnb.com/rooms/10487713,5,4.88
547,West end haven,West End,49.28668,-123.13599,https://www.airbnb.com/rooms/10523480,17,4.89
548,"Vancouver, Apartment Garden Level/Bsmt Suite",South Cambie,49.25291,-123.11915,https://www.airbnb.com/rooms/10541223,31,4.76
549,New 1200sqft Spacious Central Netflix Pool Aircon,West End,49.28301,-123.12357,https://www.airbnb.com/rooms/10598712,4,4.95
550,NEW EXECUTIVE BASEMENT SUITE WITH PRIVATE ENTRANCE,Marpole,49.20777,-123.14613,https://www.airbnb.com/rooms/10598772,6,4.86
551,Bright corner suite loft.,Fairview,49.26545,-123.14055,https://www.airbnb.com/rooms/10612995,0,4.86
552,Willow Tree Fort,Kensington-Cedar Cottage,49.24354,-123.07279,https://www.airbnb.com/rooms/10618317,0,5.0
553,"Dunbar, West Point Grey Entire House",Dunbar Southlands,49.25779,-123.1951,https://www.airbnb.com/rooms/10679492,0,5.0
554,Residency Boutique Suites - King suite,Downtown,49.28593,-123.11571,https://www.airbnb.com/rooms/10811008,0,4.82
555,Modern Open-Concept Space,Downtown Eastside,49.28196,-123.10734,https://www.airbnb.com/rooms/10924322,0,4.85
556,Very Vancouver! Main St. Apartment,Downtown Eastside,49.27912,-123.10065,https://www.airbnb.com/rooms/10946286,0,4.98
557,GREAT 1 BDRM in DOWNTOWN,Downtown,49.27462,-123.12576,https://www.airbnb.com/rooms/10964894,1,4.79
558,Nice Main Street 2 Bedroom Garden Suite,Riley Park,49.23467,-123.10364,https://www.airbnb.com/rooms/10969354,0,4.0
559,Cozy Modern 2BR Suite Near UBC,Dunbar Southlands,49.25315,-123.17653,https://www.airbnb.com/rooms/10992078,2,4.74
560,Beautiful Kits Suite,Kitsilano,49.25955,-123.15479,https://www.airbnb.com/rooms/11082375,8,4.85
561,Modern Olympic Village walk-up,Mount Pleasant,49.2691,-123.10345,https://www.airbnb.com/rooms/11102652,0,4.97
562,Modern Boutique Style on the Park,West End,49.29236,-123.13609,https://www.airbnb.com/rooms/11207279,2,4.91
563,Single bedroom with private access,Renfrew-Collingwood,49.25319,-123.03326,https://www.airbnb.com/rooms/11242550,2,4.81
564,The Patio Suite @ Grandview House,Grandview-Woodland,49.27272,-123.06948,https://www.airbnb.com/rooms/11261229,5,4.78
565,Cute East Van Garden Suite,Grandview-Woodland,49.27223,-123.06423,https://www.airbnb.com/rooms/11355778,8,4.88
566,Charming cottage in awesome area,Kensington-Cedar Cottage,49.25747,-123.07134,https://www.airbnb.com/rooms/11361362,0,4.61
567,Kitsilano Heritage House,Kitsilano,49.26823,-123.16443,https://www.airbnb.com/rooms/11378706,0,4.18
568,"Comfy, Artsy, 3-Bed Downtown House (Semi-Detached)",Downtown Eastside,49.27779,-123.08743,https://www.airbnb.com/rooms/11393844,1,4.95
569,The Flats on Georgia,Downtown Eastside,49.27812,-123.10039,https://www.airbnb.com/rooms/11396241,38,4.56
570,Modern 2 bedroom 1100 SF  in Kitsilano,Kitsilano,49.25919,-123.16995,https://www.airbnb.com/rooms/11401593,13,4.99
571,Kitsilano Apartment by the Beach!,Kitsilano,49.27431,-123.15094,https://www.airbnb.com/rooms/11441600,0,4.75
572,Master-bedroom with bathroom in a new Townhouse,Renfrew-Collingwood,49.23359,-123.04695,https://www.airbnb.com/rooms/11459956,3,4.9
573,Contemporary Coach House in the Heart of Vancouver,Riley Park,49.2477,-123.11188,https://www.airbnb.com/rooms/11512985,21,4.92
574,VGH UBC Executive Luxury Bright 1BR Apartment,Fairview,49.26107,-123.11587,https://www.airbnb.com/rooms/11531546,0,4.85
575,Vancouver Single Room in Kensington-Cedar Cottage,Kensington-Cedar Cottage,49.24781,-123.06591,https://www.airbnb.com/rooms/11546735,0,5.0
576,A sweet little East Van suite,Hastings-Sunrise,49.28024,-123.04351,https://www.airbnb.com/rooms/11548616,19,4.9
577,Vancouver Double Room in Kensington-Cedar Cottage,Kensington-Cedar Cottage,49.24616,-123.0657,https://www.airbnb.com/rooms/11550687,0,4.83
578,Downtown Vancouver Robson Street,Downtown,49.27864,-123.11727,https://www.airbnb.com/rooms/11588321,1,4.88
579,Modern new home in the heart of Van,Riley Park,49.24626,-123.09144,https://www.airbnb.com/rooms/11624015,0,4.89
580,"Beautiful, bright & sunny  3BR in Posh Kitsilano",Kitsilano,49.26907,-123.17436,https://www.airbnb.com/rooms/11638140,12,4.98
581,"SPACIOUS, BRIGHT AND BEAUTIFUL APARTMENT",Fairview,49.25809,-123.14494,https://www.airbnb.com/rooms/11676181,0,
582,Walk Everywhere! Sunny 1Br Downtown Vancouver,Downtown,49.27928,-123.1249,https://www.airbnb.com/rooms/11677580,2,4.91
583,"Live in a sunny, gorgeous laneway house",Sunset,49.22699,-123.09834,https://www.airbnb.com/rooms/11677752,3,4.76
584,GG House - A Double Bed #2,Kensington-Cedar Cottage,49.24719,-123.06355,https://www.airbnb.com/rooms/11688698,0,4.6
585,VGH UBC Executive Bright Luxury Studio Apartment,Fairview,49.26,-123.11831,https://www.airbnb.com/rooms/11722747,0,4.94
586,In the heart of East Village A Loft,Hastings-Sunrise,49.28223,-123.05257,https://www.airbnb.com/rooms/11804380,0,4.83
587,Main & King Garden Apartment,Riley Park,49.24992,-123.10578,https://www.airbnb.com/rooms/11851708,3,4.82
588,YALETOWN SKYLINE TOWNHOUSE PARKING INCLUDED,Downtown,49.27922,-123.12049,https://www.airbnb.com/rooms/11868866,9,4.69
589,Yaletown Fully Furnished Studio at English Bay,Downtown,49.27539,-123.13316,https://www.airbnb.com/rooms/11922799,2,4.81
590,Stunning Kits Oasis!!!,Kitsilano,49.26999,-123.16867,https://www.airbnb.com/rooms/11941603,0,4.95
591,New Duplex in East Vancouver,Mount Pleasant,49.26113,-123.07866,https://www.airbnb.com/rooms/11950355,0,5.0
592,Beachfront Basement with Hot Tub and Steam Room,West Point Grey,49.27017,-123.20673,https://www.airbnb.com/rooms/11950920,26,4.93
593,Large bright 3bedroom 5min from downtown Vancouver,Mount Pleasant,49.26469,-123.10397,https://www.airbnb.com/rooms/12065039,0,4.86
594,Two Bedroom Kits Beach Charm,Kitsilano,49.27046,-123.1572,https://www.airbnb.com/rooms/12083773,0,4.88
595,M.C.M. Sky Port (mid-century modern atomic style),Grandview-Woodland,49.28021,-123.06581,https://www.airbnb.com/rooms/12156919,2,4.93
596,Bright Private suite to explore Van,Sunset,49.22312,-123.0865,https://www.airbnb.com/rooms/12157772,0,4.79
597,Boutique Suites - King Suite,Downtown,49.28641,-123.11897,https://www.airbnb.com/rooms/12209150,13,4.95
598,Residency Boutique Suites - Kingroom,Downtown,49.28622,-123.119,https://www.airbnb.com/rooms/12210228,11,4.86
599,Modern loft Downtown Vancouver,Downtown,49.27858,-123.12091,https://www.airbnb.com/rooms/12211949,15,4.86
600,"LUXURY PENTHOUSE THE CARLYLE, ALBERNI",West End,49.28256,-123.12658,https://www.airbnb.com/rooms/12213507,4,4.88
601,Beach Side 30 days +,Kitsilano,49.27235,-123.16137,https://www.airbnb.com/rooms/12245225,5,4.77
602,Shangri-la Luxury Condo w/ Amazing Views Downtown,Downtown,49.28598,-123.12267,https://www.airbnb.com/rooms/12274044,0,4.5
603,MODERN COACH HOUSE WITH COURTYARD | NEAR DOWNTOWN,Hastings-Sunrise,49.27648,-123.04172,https://www.airbnb.com/rooms/12304783,24,4.94
604,Great Location! Spacious 2bed2bath,Downtown,49.28692,-123.12493,https://www.airbnb.com/rooms/12309772,6,4.63
605,Industrial Loft with Mountain Views,Downtown Eastside,49.28295,-123.10105,https://www.airbnb.com/rooms/12321367,0,4.86
606,City Cottage - 6BR/4BA >2500 Sqft Family friendly,Kensington-Cedar Cottage,49.25291,-123.08406,https://www.airbnb.com/rooms/12336968,0,4.92
607,Arty Apt with Private Patio in 110 yr-old bldg,Fairview,49.26448,-123.12735,https://www.airbnb.com/rooms/12345888,6,4.88
608,D50 1 BR Lofty Living on The Drive,Grandview-Woodland,49.26403,-123.06873,https://www.airbnb.com/rooms/12365462,0,
609,E1 - Chic Downtown Condominium near Robson Street Boutiques,Downtown,49.28252,-123.12331,https://www.airbnb.com/rooms/12391067,3,5.0
610,Georgian Colonial near UBC,Dunbar Southlands,49.24887,-123.18715,https://www.airbnb.com/rooms/12423800,5,4.87
611,Big Bright Room in Kitsilano,Kitsilano,49.26945,-123.15291,https://www.airbnb.com/rooms/12449836,0,4.85
612,Fully Furnished One Bedroom Downtown  Vancouver,Downtown,49.28528,-123.11284,https://www.airbnb.com/rooms/12455740,0,5.0
613,Studio Loft near Granville Island,Fairview,49.26567,-123.13877,https://www.airbnb.com/rooms/12511561,0,4.5
614,"Room in 110-yr old bldg: arty, spacious, central!",Fairview,49.26274,-123.12739,https://www.airbnb.com/rooms/12522460,4,4.94
615,Modern Gastown Loft,Downtown Eastside,49.28188,-123.10724,https://www.airbnb.com/rooms/12522873,0,4.67
616,Mount Pleasant- stunning family home,Mount Pleasant,49.25859,-123.07775,https://www.airbnb.com/rooms/12542874,2,4.96
617,"Beautiful,bright space,fab location,chic style",Fairview,49.26727,-123.14131,https://www.airbnb.com/rooms/12561247,11,4.92
618,Bright Spacious Kitsilano Apartment,Kitsilano,49.26367,-123.15108,https://www.airbnb.com/rooms/12603779,0,4.7
619,Chloe’s Garden Suite- Air Conditioned! Renovated!,Riley Park,49.25394,-123.10394,https://www.airbnb.com/rooms/12604369,35,4.84
620,Cozy Quiet DT Vancouver Studio w/ weekly Laundry,Downtown,49.27936,-123.12572,https://www.airbnb.com/rooms/12606189,2,4.89
621,Bright & Cozy Studio,West End,49.29025,-123.13413,https://www.airbnb.com/rooms/12608756,4,4.8
622,"spacious, funky, character, 3 bdrm., well located",Marpole,49.2153,-123.14121,https://www.airbnb.com/rooms/12611121,7,4.77
623,Heritage House - Garden Level 2 Bdrm Suite,Kensington-Cedar Cottage,49.24835,-123.08046,https://www.airbnb.com/rooms/12634353,4,4.38
624,Heart of Kits,Kitsilano,49.2673,-123.15818,https://www.airbnb.com/rooms/12736445,0,4.92
625,Beautiful 1br Garden Suite in East Vancouver,Grandview-Woodland,49.27393,-123.06639,https://www.airbnb.com/rooms/12754577,0,
626,Bright room - Main Street,Riley Park,49.2399,-123.10196,https://www.airbnb.com/rooms/12762068,0,4.14
627,Nearby marine drive sky train house,Marpole,49.21658,-123.10693,https://www.airbnb.com/rooms/12791718,0,4.25
628,Spacious Downtown Yaletown Studio + Parking,Downtown,49.27862,-123.11938,https://www.airbnb.com/rooms/12793683,5,4.71
629,One bedroom suite,South Cambie,49.25348,-123.12639,https://www.airbnb.com/rooms/12798674,15,4.91
630,1 Bedroom Apartment with Open View Sleeps 2-4,Marpole,49.21037,-123.11773,https://www.airbnb.com/rooms/12815958,0,4.72
631,Natural Light Main St. - 1 bedroom,Riley Park,49.24054,-123.1026,https://www.airbnb.com/rooms/12829633,0,4.71
632,Gastown Heritage Penthouse & Private Roof Deck,Downtown Eastside,49.28374,-123.10238,https://www.airbnb.com/rooms/12853613,18,4.8
633,《Hidden Gem in Vancouver 2 min Walk to Skytrain》,South Cambie,49.25177,-123.11546,https://www.airbnb.com/rooms/12857585,1,4.88
634,House in the Heart of Main Street!,Riley Park,49.24931,-123.09618,https://www.airbnb.com/rooms/12952602,0,4.85
635,Bright sub-penthouse near beach - long term rental,West End,49.28131,-123.13669,https://www.airbnb.com/rooms/12952787,0,4.0
636,D20- Beautiful 1 bedroom suite,Downtown,49.27538,-123.1273,https://www.airbnb.com/rooms/12971136,0,4.5
637,Cozy one bedroom suite,Marpole,49.21434,-123.13249,https://www.airbnb.com/rooms/13000591,4,4.81
638,"Modern 2 Bdrm+2 Bath+Den+1 Parking, Yaletown, View",Downtown,49.27488,-123.11524,https://www.airbnb.com/rooms/13007169,0,5.0
639,Steps to Granville Island,Fairview,49.27011,-123.14099,https://www.airbnb.com/rooms/13021044,0,
640,Beautiful new townhouse room in artistic district,Kensington-Cedar Cottage,49.26098,-123.07341,https://www.airbnb.com/rooms/13035303,0,4.9
641,D15- 2 BR downtown luxury suite,Downtown,49.27654,-123.12541,https://www.airbnb.com/rooms/13062709,0,
642,"Cozy, well-lit private studio (30 day min)",West End,49.28125,-123.12762,https://www.airbnb.com/rooms/13065799,0,4.94
643,Savor Breathtaking Views of Downtown,Downtown,49.27754,-123.12414,https://www.airbnb.com/rooms/13093588,2,4.95
644,Beautiful 3 BDRM Newly Reno'd Home Cambie Area,Riley Park,49.25061,-123.11302,https://www.airbnb.com/rooms/13095062,3,5.0
645,"Historic Neighborhood: Bright Apt, Beautiful View",Downtown,49.27894,-123.10754,https://www.airbnb.com/rooms/13111653,0,4.81
646,Home Sweet Home East Village,Grandview-Woodland,49.27919,-123.06198,https://www.airbnb.com/rooms/13158407,0,4.83
647,"Luxe Heritage Gastown Loft, Thoroughly Renovated",Downtown Eastside,49.28173,-123.10797,https://www.airbnb.com/rooms/13167163,0,4.85
648,"The Green House - Please, no quarantine bookings!",Renfrew-Collingwood,49.25977,-123.05534,https://www.airbnb.com/rooms/13205734,27,4.82
649,❤Beautiful Studio Suite by VGH and Downtown,Mount Pleasant,49.2585,-123.10986,https://www.airbnb.com/rooms/13208731,0,4.77
650,"**room #1**is available (Vancouver, BC)",Riley Park,49.25275,-123.09144,https://www.airbnb.com/rooms/13219781,7,4.53
651,Suite garden patio on The Drive,Grandview-Woodland,49.26493,-123.06927,https://www.airbnb.com/rooms/13274735,29,4.87
652,Big and Bright and Beautiful -1 Bdrm off Main St,Sunset,49.23124,-123.09689,https://www.airbnb.com/rooms/13284025,0,4.89
653,Amazing 3 Bedrm Condo w/ Incredible View + Parking,Downtown,49.278938,-123.107872,https://www.airbnb.com/rooms/13284465,7,4.81
654,Downtown Vancouver - Robson Studio for 2,Downtown,49.27927,-123.1165,https://www.airbnb.com/rooms/13297246,0,4.5
655,East Vancouver studio suite in cute home,Kensington-Cedar Cottage,49.25573,-123.08344,https://www.airbnb.com/rooms/13308004,0,4.72
656,Hip and cool apartment in downtown Vancouver,Downtown,49.27781,-123.12976,https://www.airbnb.com/rooms/13317612,13,4.93
657,Kerrisdale Craftsman,Arbutus Ridge,49.24255,-123.15148,https://www.airbnb.com/rooms/13346084,0,5.0
658,"Main St, Private 2 BR, skytrain: King Ed downtown",Riley Park,49.24975,-123.10195,https://www.airbnb.com/rooms/13350002,10,4.81
659,Private Bachelor Suite for 1p w/ Sundeck,Renfrew-Collingwood,49.25456,-123.03492,https://www.airbnb.com/rooms/13358432,6,4.62
660,A private room in the Heart of Downtown,West End,49.28874,-123.13165,https://www.airbnb.com/rooms/13360139,10,4.85
661,Room in the Tree Tops,Arbutus Ridge,49.24775,-123.16692,https://www.airbnb.com/rooms/13361855,1,4.89
662,Comfortable Family home at the centre of it all!,Riley Park,49.2505,-123.10522,https://www.airbnb.com/rooms/13396760,0,5.0
663,Large & Bright Gastown Luxury Loft w/20ft ceilings,Downtown Eastside,49.28259,-123.10313,https://www.airbnb.com/rooms/13416108,25,4.89
664,"2 BR 3 BD Great location, close to bus stops",Dunbar Southlands,49.2551,-123.18658,https://www.airbnb.com/rooms/13419885,5,4.79
665,(ROOM2)  Private Room with Separate Entrance,Shaughnessy,49.24258,-123.13438,https://www.airbnb.com/rooms/13429166,38,4.54
666,(ROOM1)  Private Room with Separate Entrance,Shaughnessy,49.24281,-123.13318,https://www.airbnb.com/rooms/13429931,30,4.42
667,Bedroom in a great apartment close to Seawall,Downtown Eastside,49.27493,-123.09964,https://www.airbnb.com/rooms/13433673,0,4.85
668,Bright One Bedroom Vancouver Apartment,Mount Pleasant,49.26158,-123.08473,https://www.airbnb.com/rooms/13452560,1,4.59
669,Rustic Suite near Commercial Drive in Vancouver,Grandview-Woodland,49.26952,-123.06592,https://www.airbnb.com/rooms/13456176,0,4.77
670,3BDR Luxury Heritage Home- heart of Kitsilano,Kitsilano,49.26029,-123.16521,https://www.airbnb.com/rooms/13464468,0,4.85
671,Elegance plus Location; Steps to Downtown Van,West End,49.28235,-123.13587,https://www.airbnb.com/rooms/13525164,6,4.91
672,West End + Free Compass Card + Free Extras,West End,49.290596,-123.137802,https://www.airbnb.com/rooms/13565457,3,4.74
673,Cozy／Sanitized／Private 2 bedroom Suit in Vancouver,Kerrisdale,49.22964,-123.17569,https://www.airbnb.com/rooms/13591641,19,4.37
674,Vancouver Two Bedrooms Family Suite,Killarney,49.2203,-123.03021,https://www.airbnb.com/rooms/13607124,0,4.78
675,Large garden suite very close to Commercial Drive,Kensington-Cedar Cottage,49.25814,-123.07511,https://www.airbnb.com/rooms/13607164,4,4.85
676,East Van whole house rental,Grandview-Woodland,49.27562,-123.06066,https://www.airbnb.com/rooms/13617271,0,4.18
677,Downtown 1 Bdr.+Parking+Gym/Pool,Downtown,49.27995,-123.10903,https://www.airbnb.com/rooms/13619735,35,4.87
678,Stunning Modern Loft with Mountain Waterfront View,Downtown Eastside,49.28378,-123.10877,https://www.airbnb.com/rooms/13620049,0,5.0
679,"Stunning, Modern, Spacious home in Vancouver.",West Point Grey,49.27216,-123.20664,https://www.airbnb.com/rooms/13621955,3,4.67
680,Luxury Fairview Slopes 4 Bed Penthouse,Fairview,49.26597,-123.11689,https://www.airbnb.com/rooms/13643954,2,4.95
681,"Cozy, bright bedroom in large lovely home",Kitsilano,49.26616,-123.18065,https://www.airbnb.com/rooms/13657718,2,4.89
682,Beautiful Bright Kitsilano Home,Kitsilano,49.26077,-123.18099,https://www.airbnb.com/rooms/13659871,0,4.67
683,Downtown Vancouver Penthouse Private Room 3003,Downtown,49.28822,-123.12449,https://www.airbnb.com/rooms/13669298,19,4.71
684,Suite Sky train  Downtown CovidPrtcl Commercial Dr,Kensington-Cedar Cottage,49.25976,-123.06033,https://www.airbnb.com/rooms/13673539,24,4.78
685,1 BR Private Suite with Kitchen and Laundry,Hastings-Sunrise,49.27669,-123.05378,https://www.airbnb.com/rooms/13684395,4,4.67
686,Charming garden level studio. Completely private.,Kensington-Cedar Cottage,49.24032,-123.06304,https://www.airbnb.com/rooms/13701691,29,4.77
687,❤️ SUPER CENTRAL DOWNTOWN VANCOUVER in YALETOWN ❤️,Downtown,49.27975,-123.11984,https://www.airbnb.com/rooms/13766869,8,4.95
688,Perfect 2bdrm home in Kits,Kitsilano,49.26686,-123.14629,https://www.airbnb.com/rooms/13767831,0,5.0
689,Amazing 1BR Heart of Downtown Yaletown VancouverBC,Downtown,49.27765,-123.13088,https://www.airbnb.com/rooms/13784356,6,4.62
690,New Listing Luxury Yaletown Waterfront Home,Downtown,49.27181,-123.12486,https://www.airbnb.com/rooms/13800057,0,4.94
691,Cozy Room in new Condo @ Olympic Village,Mount Pleasant,49.26894,-123.10337,https://www.airbnb.com/rooms/13817015,0,4.7
692,Best Vancouver Location,Mount Pleasant,49.2611,-123.11037,https://www.airbnb.com/rooms/13829747,26,4.82
693,LH1 - Sleek Downtown Condo with a Balcony,Downtown,49.27971,-123.11618,https://www.airbnb.com/rooms/13831080,3,4.92
694,Hidden Bohemia on the Drive,Grandview-Woodland,49.26566,-123.07181,https://www.airbnb.com/rooms/13843432,9,4.71
695,"Bright and spacious 2 bdrm, 2 bath great location",Downtown,49.27968,-123.1088,https://www.airbnb.com/rooms/13858633,0,4.7
696,Modern Main Flr Studio.Chrct Hse - Main/Broad,Mount Pleasant,49.25996,-123.09479,https://www.airbnb.com/rooms/13885190,4,4.58
697,Downtown Vancouver with rooftop patio,Downtown,49.28041,-123.12494,https://www.airbnb.com/rooms/13913494,6,4.94
698,SPACIOUS DOWNTOWN with city views!,West End,49.28087,-123.12677,https://www.airbnb.com/rooms/13993885,5,4.54
699,Stay in the heart of Kitsilano,Kitsilano,49.26415,-123.15793,https://www.airbnb.com/rooms/13996470,0,4.87
700,Awesome Apartment Downtown (Monthly Discount),West End,49.27823,-123.13062,https://www.airbnb.com/rooms/13998682,4,4.92
701,Luxury Coal Harbour 2 bed 2 bath w/ Stunning Views,Downtown,49.28801,-123.12491,https://www.airbnb.com/rooms/13999349,1,5.0
702,BRAND-New Beautiful 2 Br/1.5 Ba Coach House,Renfrew-Collingwood,49.24141,-123.03011,https://www.airbnb.com/rooms/13999471,0,4.76
703,2 Bdrm  Near Hospitals and Downtown,South Cambie,49.25432,-123.12369,https://www.airbnb.com/rooms/14014285,8,4.69
704,STANLEY PARK DOWNTOWN CONDO,West End,49.28894,-123.1336,https://www.airbnb.com/rooms/14015267,3,4.86
705,Central Downtown Condo,Downtown,49.2814,-123.12431,https://www.airbnb.com/rooms/14015552,4,5.0
706,2 Br Ground Level Suite - 95 Walk Score!,Mount Pleasant,49.25693,-123.11179,https://www.airbnb.com/rooms/14027258,0,5.0
707,Bright & Central,Fairview,49.25898,-123.11866,https://www.airbnb.com/rooms/14028670,0,4.88
708,Yvette's place 2,Hastings-Sunrise,49.28953,-123.04178,https://www.airbnb.com/rooms/14029073,0,4.57
709,Olden Room in Vancouver Traveller Bed & Breakfast,Arbutus Ridge,49.25448,-123.15384,https://www.airbnb.com/rooms/14061704,0,5.0
710,Spacious Basement Mini-Suite in Dunbar near U.B.C.,Dunbar Southlands,49.25716,-123.18978,https://www.airbnb.com/rooms/14074129,0,4.89
711,Cozy 1 Bedroom unit with Open View sleeps 2 - 4,Marpole,49.21343,-123.11357,https://www.airbnb.com/rooms/14074932,1,4.89
712,"Garden suite, beside forest, near UBC and beach.",Dunbar Southlands,49.25618,-123.19529,https://www.airbnb.com/rooms/14077912,8,4.79
713,Spacious house at Vancouver. Great location!,Dunbar Southlands,49.24045,-123.18864,https://www.airbnb.com/rooms/14090993,0,4.75
714,Central Heritage Luxury,Kensington-Cedar Cottage,49.26049,-123.07481,https://www.airbnb.com/rooms/14106936,0,5.0
715,Fun Old School Private  Apartment,Kensington-Cedar Cottage,49.23372,-123.07703,https://www.airbnb.com/rooms/14107152,11,4.46
716,Modern Yaletown 700 sq. ft. studio,Downtown,49.27791,-123.12252,https://www.airbnb.com/rooms/14112422,6,4.82
717,Amazing view from a private room,Downtown,49.28353,-123.11524,https://www.airbnb.com/rooms/14112559,0,4.67
718,Beauti-Van！,Sunset,49.21684,-123.07936,https://www.airbnb.com/rooms/14127036,0,4.89
719,Commercial Drive Hideaway ( parking/ train/ patio),Grandview-Woodland,49.26694,-123.06672,https://www.airbnb.com/rooms/14168267,11,4.85
720,Family Friendly House in Central Vancouver,Kensington-Cedar Cottage,49.24524,-123.07961,https://www.airbnb.com/rooms/14177739,3,4.91
721,Hip Commercial Drive Tropical Heritage House,Grandview-Woodland,49.27238,-123.06842,https://www.airbnb.com/rooms/14202073,0,5.0
722,Garden Level Studio Suite in Vancouver South,Sunset,49.21165,-123.10114,https://www.airbnb.com/rooms/14203231,0,4.66
723,Private Bedroom in Yaletown with Ocean View,Downtown,49.27526,-123.12896,https://www.airbnb.com/rooms/14207564,0,5.0
724,Entire Condo @ the heart of Downtown Vancouver,Downtown,49.27683,-123.11942,https://www.airbnb.com/rooms/14216608,0,5.0
725,Delbert: the Author and his Oasis World Masks,Sunset,49.21769,-123.09191,https://www.airbnb.com/rooms/14222707,0,4.83
726,Yaletown Skyline Studio,Downtown,49.27804,-123.12265,https://www.airbnb.com/rooms/14223325,0,4.92
727,East Village Haven,Grandview-Woodland,49.28054,-123.06184,https://www.airbnb.com/rooms/14237741,0,4.92
728,Penthouse Unit in Historic Chinatown,Downtown Eastside,49.28043,-123.10105,https://www.airbnb.com/rooms/14247519,9,4.92
729,"Charming Guest-house, close to Downtown",Downtown Eastside,49.27904,-123.09246,https://www.airbnb.com/rooms/14248978,9,4.94
730,"Beautiful comfy, private garden suite.",Sunset,49.22624,-123.1027,https://www.airbnb.com/rooms/14266530,0,4.99
731,Covid CleanPrtcl SkyTrain Downtown Commercial Dr,Kensington-Cedar Cottage,49.26196,-123.05811,https://www.airbnb.com/rooms/14296335,39,4.76
732,"Cozy Private suite w/ Kitchen, Close to DT",Killarney,49.23108,-123.02945,https://www.airbnb.com/rooms/14320418,6,4.54
733,One Bedroom Townhouse in Chinatown,Downtown,49.27539,-123.10009,https://www.airbnb.com/rooms/14341031,0,4.97
734,DTcenter/GreatView/FreeParking/Pool/Gym/AC/30Day+,Downtown,49.2796,-123.1164,https://www.airbnb.com/rooms/14377109,2,4.86
735,Thomas Crawford House,Downtown Eastside,49.27729,-123.08774,https://www.airbnb.com/rooms/14419998,5,4.95
736,"Modern, bright, 2 bedroom retreat",Kensington-Cedar Cottage,49.24868,-123.07503,https://www.airbnb.com/rooms/14454627,0,5.0
737,Central 2 Storey Loft - Spacious 2BR + Parking,Strathcona,49.27671,-123.09865,https://www.airbnb.com/rooms/14505465,0,4.86
738,Cozy 1 Bdrm near Hospitals & Downtown,South Cambie,49.25442,-123.12548,https://www.airbnb.com/rooms/14524029,12,4.8
739,Vancouver for Vegetarians (Entire home),Kensington-Cedar Cottage,49.23942,-123.07083,https://www.airbnb.com/rooms/14535292,0,4.92
740,Private 2 Bedrooms - Brand New Home,Kensington-Cedar Cottage,49.25423,-123.08951,https://www.airbnb.com/rooms/14538753,14,4.84
741,Vancouver Point Grey 3  bedroom large suite.,West Point Grey,49.2614,-123.20698,https://www.airbnb.com/rooms/14547306,4,4.81
742,Designers Apartment in cozy neighborhood,Grandview-Woodland,49.27524,-123.07223,https://www.airbnb.com/rooms/14555310,10,4.95
743,"Bright, spacious, convenient location Vancouver.",Renfrew-Collingwood,49.23575,-123.0271,https://www.airbnb.com/rooms/14567822,1,5.0
744,Brand new place in the hippest hood,Mount Pleasant,49.2697,-123.10152,https://www.airbnb.com/rooms/14569204,0,4.92
745,Walk to Commercial Drive Skytrain,Kensington-Cedar Cottage,49.25758,-123.06673,https://www.airbnb.com/rooms/14570210,35,4.82
746,East-Vancouver Garden Suite,Kensington-Cedar Cottage,49.23913,-123.08451,https://www.airbnb.com/rooms/14607432,3,4.77
747,Modern + Unique Loft Living // Central location,Mount Pleasant,49.26716,-123.09803,https://www.airbnb.com/rooms/14613217,15,4.77
748,Private Room in Stylish Country Home by UBC,West Point Grey,49.26192,-123.21326,https://www.airbnb.com/rooms/14616229,0,4.91
749,Private 1 Bdrm Suite Off Uber Hip Main Street,Riley Park,49.24743,-123.09525,https://www.airbnb.com/rooms/14674413,0,4.93
750,BEST LOCATION-CLOSE TO THE BEACH&DOWNTOWN,Kitsilano,49.26794,-123.14974,https://www.airbnb.com/rooms/14686533,0,4.72
751,Artistic Condo w/ Garden Patio near Downtown,Kensington-Cedar Cottage,49.261,-123.0761,https://www.airbnb.com/rooms/14710981,0,4.85
752,"Downtown Vancouver Yaletown: seawall, shops, food",Downtown,49.27618,-123.12744,https://www.airbnb.com/rooms/14711719,1,5.0
753,Trendy Yaletown 1 Bdrm with Parking (M1),Downtown,49.27497,-123.11716,https://www.airbnb.com/rooms/14724594,4,4.88
754,Cozy Heritage Home,Marpole,49.2172,-123.13793,https://www.airbnb.com/rooms/14726102,3,4.73
755,Corporate Stays | Capitol Residences | Modern 1BR,Downtown,49.28091,-123.12069,https://www.airbnb.com/rooms/14730220,0,4.67
756,Downtown Core 2BR/2BA with Balcony & Parking,Downtown,49.28016,-123.11825,https://www.airbnb.com/rooms/14739485,1,4.95
757,Vine & Balsam,Kitsilano,49.26546,-123.15998,https://www.airbnb.com/rooms/14752363,8,4.97
758,Tropical Vibe 2 (Private Room),Sunset,49.22058,-123.08626,https://www.airbnb.com/rooms/14757196,49,4.71
759,Tropical Vibe 1 (Private Room),Sunset,49.22051,-123.0856,https://www.airbnb.com/rooms/14775158,92,4.71
760,Studio appartment in Gastown,Downtown Eastside,49.28306,-123.10877,https://www.airbnb.com/rooms/14807169,0,4.75
761,Bright and renovated garden suite in Fraserhood,Kensington-Cedar Cottage,49.24911,-123.07706,https://www.airbnb.com/rooms/14809328,9,4.82
762,Gorgeous Crosstown Condo: stunning Views!,Downtown,49.27892,-123.1081,https://www.airbnb.com/rooms/14823788,1,4.97
763,Lovely room,Victoria-Fraserview,49.21255,-123.0574,https://www.airbnb.com/rooms/14831562,6,4.89
764,Charming room,Victoria-Fraserview,49.21121,-123.05598,https://www.airbnb.com/rooms/14831774,11,4.9
765,Bright in the heart of Kitsilano- 6 month rental,Kitsilano,49.2614,-123.15827,https://www.airbnb.com/rooms/14836915,0,5.0
766,Central Living New Clean Upscale 1 BR by Yaletown!,Downtown,49.28226,-123.1192,https://www.airbnb.com/rooms/14844498,0,4.83
767,*Covid cleanPrtcl Sky Train Downtown Commercial Dr,Kensington-Cedar Cottage,49.2593,-123.05971,https://www.airbnb.com/rooms/14856847,21,4.77
768,Sweet room,Victoria-Fraserview,49.21086,-123.05587,https://www.airbnb.com/rooms/14869865,0,4.81
769,Clean and Simple Room,Marpole,49.21586,-123.12532,https://www.airbnb.com/rooms/14884981,0,4.87
770,"Private, Spacious & Sparkling Clean.  Near transit",Hastings-Sunrise,49.26612,-123.03956,https://www.airbnb.com/rooms/14887513,8,4.9
771,"Kits Beach! Big one bedroom top floor, sleeps 3-4",Kitsilano,49.26605,-123.15106,https://www.airbnb.com/rooms/14929609,0,4.59
772,Coach House with Private Patio and Terrace,Kitsilano,49.26219,-123.17864,https://www.airbnb.com/rooms/14936241,2,4.98
773,Quiet Mt. Pleasant Character Duplex,Mount Pleasant,49.25938,-123.10424,https://www.airbnb.com/rooms/14946886,0,4.8
774,Heart of YALETOWN,Downtown,49.27775,-123.12325,https://www.airbnb.com/rooms/14992464,10,4.94
775,Between the Beach and Broadway,Kitsilano,49.26774,-123.17773,https://www.airbnb.com/rooms/15008574,26,4.93
776,"Cozy, Spacious and Modern 1 Bedroom Accommodation",Grandview-Woodland,49.26643,-123.05809,https://www.airbnb.com/rooms/15022825,8,4.93
777,A Sweet Garden Suite,Riley Park,49.25525,-123.10767,https://www.airbnb.com/rooms/15027668,3,4.83
778,Private Garden Sanctuary on 'The Drive',Grandview-Woodland,49.27369,-123.06303,https://www.airbnb.com/rooms/15037603,10,4.85
779,Furnished 2 BDRM Coach House,Riley Park,49.25113,-123.11466,https://www.airbnb.com/rooms/15040167,2,4.89
780,Private Unit in a residential neighborhood,Renfrew-Collingwood,49.25377,-123.04513,https://www.airbnb.com/rooms/15041985,4,4.72
781,Jessie Crawford's Attic,Downtown Eastside,49.27926,-123.08715,https://www.airbnb.com/rooms/15043236,4,4.95
782,Local living! Commercial Dr studio w/easy transit,Kensington-Cedar Cottage,49.25489,-123.07461,https://www.airbnb.com/rooms/15058838,0,4.85
783,"Small, Studio Suite close the Sea!",Kitsilano,49.26531,-123.16218,https://www.airbnb.com/rooms/15147197,59,4.89
784,132 YALETOWN PARK / FOR EXTENDED 3 MONTH STAY!,Downtown,49.27775,-123.11741,https://www.airbnb.com/rooms/15160387,2,4.67
785,UV-CleanSanitize WFH Comfort near Dwntown/Skytrain,Renfrew-Collingwood,49.26174,-123.04726,https://www.airbnb.com/rooms/15164422,10,4.87
786,Cozy Studio in Mount Pleasant,Mount Pleasant,49.26143,-123.10964,https://www.airbnb.com/rooms/15197174,45,4.93
787,Central Bright 1Bed in Mt. Pleasant - 30 day min.,Mount Pleasant,49.26065,-123.09872,https://www.airbnb.com/rooms/15255610,0,5.0
788,Robson St Modern Luxe Condo by Vancouver Library,Downtown,49.27947,-123.11835,https://www.airbnb.com/rooms/15260043,1,4.83
789,Beautiful Coach House in Perfect Location,South Cambie,49.25175,-123.11925,https://www.airbnb.com/rooms/15272120,1,5.0
790,Condo overlooking the heart of Downtown Vancouver,Downtown,49.27952,-123.12024,https://www.airbnb.com/rooms/15280784,0,5.0
791,Gorgeous New Panoramic Water View Executive Suite,Downtown,49.28012,-123.11419,https://www.airbnb.com/rooms/15287755,0,4.6
792,Granville Street Gem 1Bed + Parking (B2),Downtown,49.27629,-123.12508,https://www.airbnb.com/rooms/15288267,0,5.0
793,Downtown central spacious apartment,Downtown,49.28484,-123.11437,https://www.airbnb.com/rooms/15300175,0,0.0
794,2 bedroom garden level Dunbar- Jericho Beach,Dunbar Southlands,49.2543,-123.19622,https://www.airbnb.com/rooms/15312395,1,4.76
795,In the heart of Vancouver,Kitsilano,49.26321,-123.16329,https://www.airbnb.com/rooms/15321958,3,4.51
796,"TRANSIT NEARBY,CONVIENIENT LOCATION,HUGE SPACE!!!",Renfrew-Collingwood,49.25117,-123.05318,https://www.airbnb.com/rooms/15329853,17,4.91
797,Yaletown Lux 2Bed/Bath+Den+Concierge+Gym+RoofPatio,Downtown,49.28023,-123.1186,https://www.airbnb.com/rooms/15330197,4,5.0
798,Boutique Suites - King room,Downtown,49.2849,-123.11725,https://www.airbnb.com/rooms/15424088,11,4.79
799,"Modern, fully featured, the heart of Mt Pleasant",Mount Pleasant,49.25999,-123.10134,https://www.airbnb.com/rooms/15439018,4,4.9
800,Sunny two bedroom heritage home in Kitsilano,Kitsilano,49.26858,-123.16151,https://www.airbnb.com/rooms/15455452,24,4.99
801,Heart of Downtown Yaletown Vancouver Hornby Studio,Downtown,49.2775,-123.13086,https://www.airbnb.com/rooms/15471901,4,4.56
802,Private room in modern Chinatown apartment,Downtown Eastside,49.28161,-123.10181,https://www.airbnb.com/rooms/15541440,4,4.76
803,"Beautiful Garden suite in Kitsilano 2 bdrm , 5 ppl",Kitsilano,49.27017,-123.15711,https://www.airbnb.com/rooms/15542567,13,4.94
804,Beautiful Coal Harbour Townhouse,Downtown,49.287,-123.12362,https://www.airbnb.com/rooms/15553626,0,
805,Cozy and Convenient Downtown Apartment,Downtown,49.27652,-123.11044,https://www.airbnb.com/rooms/15563093,0,4.84
806,3BDR Beautiful Home with Gorgeous Views,Arbutus Ridge,49.24566,-123.16614,https://www.airbnb.com/rooms/15582940,0,4.5
807,151 - 1 Bedroom  & den/Sleeps 3 by Stanley Park,West End,49.2902,-123.14282,https://www.airbnb.com/rooms/15598497,0,5.0
808,4time vancouver superhost 1,Renfrew-Collingwood,49.25126,-123.03277,https://www.airbnb.com/rooms/15624482,0,4.53
809,Coal harbour/ Stanley park/ Convention centre,Downtown,49.28876,-123.12354,https://www.airbnb.com/rooms/15626890,20,4.94
810,Kits point duplex Amazing Location,Kitsilano,49.2745,-123.1491,https://www.airbnb.com/rooms/15642691,0,4.67
811,"Parkside Character Home, 6 min from Downtown",South Cambie,49.25072,-123.11681,https://www.airbnb.com/rooms/15646460,2,4.85
812,Coal Harbour Ocean View Condo,Downtown,49.2878,-123.12423,https://www.airbnb.com/rooms/15706251,4,4.9
813,Executive Heritage Home/Best Neighbourhood in City,Kitsilano,49.26793,-123.16231,https://www.airbnb.com/rooms/15803843,13,5.0
814,"Central w/2 bikes- Peaceful, COMFY Westcoast suite",Strathcona,49.26716,-123.0918,https://www.airbnb.com/rooms/15868021,19,4.46
815,2BR apt in the heart of yaletown with free parking,Downtown,49.27737,-123.12369,https://www.airbnb.com/rooms/15951675,0,4.83
816,Rare find: Furnished Condo in the Center,Downtown,49.28536,-123.11279,https://www.airbnb.com/rooms/15988395,0,
817,"Elegant, central, bright downtown sanctuary",West End,49.28292,-123.12441,https://www.airbnb.com/rooms/16016323,4,4.87
818,Gorgeous 2bdrm Garden Suite 15min to downtown PNE,Hastings-Sunrise,49.28457,-123.04419,https://www.airbnb.com/rooms/16026015,20,4.86
819,Modern Gem -  Fully Furnished Apartment,Hastings-Sunrise,49.28638,-123.02704,https://www.airbnb.com/rooms/16083491,11,4.86
820,Spacious Sub-Penthouse View Condo on 30th Floor,Downtown,49.28056,-123.12523,https://www.airbnb.com/rooms/16120923,0,4.94
821,D37- Stylish 1 bedroom + 1 bath,West End,49.28561,-123.13237,https://www.airbnb.com/rooms/16174226,0,5.0
822,Main St Apartment | Centrally Located | Eat x Shop,Mount Pleasant,49.26594,-123.10085,https://www.airbnb.com/rooms/16177189,21,4.88
823,2 bdrm newly renovated suite Oakridge Canada Line,Riley Park,49.23775,-123.11017,https://www.airbnb.com/rooms/16218564,0,3.5
824,Chinatown Penthouse Sanctuary,Downtown Eastside,49.280476,-123.098785,https://www.airbnb.com/rooms/16221349,3,4.82
825,Luxury Loft in Downtown Vancouver,Downtown,49.27476,-123.12499,https://www.airbnb.com/rooms/16232948,3,4.83
826,Private entrance to a cosy Kitsilano suite!,Kitsilano,49.26011,-123.16452,https://www.airbnb.com/rooms/16233697,5,4.6
827,Sleek Contemporary Studio,Mount Pleasant,49.25824,-123.10429,https://www.airbnb.com/rooms/16243231,10,4.85
828,Luxury Kits-Point Home 5-bed near Beach & Downtown,Kitsilano,49.27525,-123.14821,https://www.airbnb.com/rooms/16259049,6,4.8
829,1 Bedroom + Den in the heart of Yaletown,Downtown,49.27905,-123.11948,https://www.airbnb.com/rooms/16288021,2,5.0
830,Cute & Cozy Private Room/Bath in Mount Pleasant,Mount Pleasant,49.26494,-123.10111,https://www.airbnb.com/rooms/16289980,2,4.98
831,Big two bedroom apartment near Commercial Drive.,Grandview-Woodland,49.27071,-123.06432,https://www.airbnb.com/rooms/16296662,26,4.91
832,New Condo in Vancouver,Grandview-Woodland,49.28168,-123.06178,https://www.airbnb.com/rooms/16302576,0,5.0
833,"Great location close to beach,park.",West End,49.2886,-123.13992,https://www.airbnb.com/rooms/16314813,0,5.0
834,Sunny Central Downtown Spot Sleeps Four!,Downtown,49.27857,-123.12299,https://www.airbnb.com/rooms/16315060,34,4.81
835,Family heritage home in lovely neighbourhood,Kensington-Cedar Cottage,49.25721,-123.07373,https://www.airbnb.com/rooms/16339748,0,5.0
836,A 2 br Town house for extended stay Vancouver West,Riley Park,49.25552,-123.11495,https://www.airbnb.com/rooms/16370007,0,5.0
837,Gorgeous Gastown near everything.  Incl. parking.,Downtown Eastside,49.28186,-123.10771,https://www.airbnb.com/rooms/16380622,0,5.0
